{"network":{"company":["Helsinki City Transport","Helsinki Regional Transport","CityBikeFinland","Smoove SAS","Moventia","Alepa"],"href":"/v2/networks/citybikes-helsinki","id":"citybikes-helsinki","location":{"city":"Helsinki","country":"FI","latitude":60.16985569999999,"longitude":24.938379},"name":"City bikes","stations":[{"empty_slots":15,"extra":{"uid":"001"},"free_bikes":23,"id":"7f0baf8054547e62f029e717f4f1ea31","latitude":60.15544479382098,"longitude":24.950292889690314,"name":"Kaivopuisto","timestamp":"2023-10-18T20:35:03.826000Z"},{"empty_slots":10,"extra":{"uid":"002"},"free_bikes":4,"id":"9260e3f88cfd9ede2dacf66685cc9595","latitude":60.160959094315416,"longitude":24.95634747175871,"name":"Laivasillankatu","timestamp":"2023-10-18T20:35:03.845000Z"},{"empty_slots":4,"extra":{"uid":"003"},"free_bikes":14,"id":"d6df69b46a8a140b89af51eb17c69309","latitude":60.1581892,"longitude":24.9449274,"name":"Kapteeninpuistikko","timestamp":"2023-10-18T20:35:03.861000Z"},{"empty_slots":10,"extra":{"uid":"004"},"free_bikes":6,"id":"fc993e236043e904c4d229a3806cb458","latitude":60.1609859,"longitude":24.9417758,"name":"Viiskulma","timestamp":"2023-10-18T20:35:03.867000Z"},{"empty_slots":4,"extra":{"uid":"006"},"free_bikes":35,"id":"f21eedaefb3ce200e00b2f5ef79a86ed","latitude":60.1622251,"longitude":24.9297099,"name":"Hietalahdentori","timestamp":"2023-10-18T20:35:03.875000Z"},{"empty_slots":14,"extra":{"uid":"007"},"free_bikes":0,"id":"c9ccdb754e844d3a93d1e8bf0484ed84","latitude":60.1631032,"longitude":24.94596,"name":"Designmuseo","timestamp":"2023-10-18T20:35:03.878000Z"},{"empty_slots":23,"extra":{"uid":"008"},"free_bikes":1,"id":"59ec8e91ebdedd1a5e90c2d248b5a963","latitude":60.1652883,"longitude":24.9391499,"name":"Vanha kirkkopuisto","timestamp":"2023-10-18T20:35:03.881000Z"},{"empty_slots":38,"extra":{"uid":"009"},"free_bikes":11,"id":"e8156a41707f9e2a901ea0fb614bd424","latitude":60.166890083486,"longitude":24.9442610720753,"name":"Erottajan aukio","timestamp":"2023-10-18T20:35:03.883000Z"},{"empty_slots":27,"extra":{"uid":"010"},"free_bikes":1,"id":"bbb686b99f3216dce38c23e6f8fca44a","latitude":60.1650171805,"longitude":24.94947287873,"name":"Kasarmitori","timestamp":"2023-10-18T20:35:03.892000Z"},{"empty_slots":18,"extra":{"uid":"011"},"free_bikes":7,"id":"4e86b1996c9d52fb79c89430f1af181a","latitude":60.1674573,"longitude":24.9510227,"name":"Unioninkatu","timestamp":"2023-10-18T20:35:03.896000Z"},{"empty_slots":28,"extra":{"uid":"012"},"free_bikes":11,"id":"5830f735c285e06bc38bfbf2c29364a5","latitude":60.168384,"longitude":24.9583814,"name":"Kanavaranta","timestamp":"2023-10-18T20:35:03.899000Z"},{"empty_slots":1,"extra":{"uid":"013"},"free_bikes":33,"id":"fa036e336e86ef29897a72de428cb14a","latitude":60.1678703,"longitude":24.9755341,"name":"Merisotilaantori","timestamp":"2023-10-18T20:35:03.904000Z"},{"empty_slots":16,"extra":{"uid":"014"},"free_bikes":10,"id":"372e747d387570ae1dbec858edf5cc85","latitude":60.169112,"longitude":24.952197,"name":"Senaatintori","timestamp":"2023-10-18T20:35:03.907000Z"},{"empty_slots":6,"extra":{"uid":"015"},"free_bikes":11,"id":"cf5e31e876612bc7ef0057ffdec18398","latitude":60.17110664588,"longitude":24.95555819284,"name":"Ritarikatu","timestamp":"2023-10-18T20:35:03.910000Z"},{"empty_slots":3,"extra":{"uid":"016"},"free_bikes":38,"id":"3476ce56a054b51f7d26cdb7bdafa45b","latitude":60.174140249623726,"longitude":24.962084269349347,"name":"Liisanpuistikko","timestamp":"2023-10-18T20:35:03.914000Z"},{"empty_slots":24,"extra":{"uid":"017"},"free_bikes":4,"id":"f830d1e181e7bda6a800a1c686e23373","latitude":60.1731029004969,"longitude":24.9495192737191,"name":"Varsapuistikko","timestamp":"2023-10-18T20:35:03.917000Z"},{"empty_slots":27,"extra":{"uid":"018"},"free_bikes":5,"id":"f41cd848f621624a29751af040e3dea3","latitude":60.16988,"longitude":24.948522,"name":"Porthania","timestamp":"2023-10-18T20:35:03.921000Z"},{"empty_slots":9,"extra":{"uid":"019"},"free_bikes":23,"id":"52592a94f6004cc0f783ac448fb9287b","latitude":60.1708236,"longitude":24.9425268,"name":"Rautatientori / it\u00e4","timestamp":"2023-10-18T20:35:03.923000Z"},{"empty_slots":15,"extra":{"uid":"021"},"free_bikes":5,"id":"cc338968572ff3413f3e18b52d12cd72","latitude":60.17219068,"longitude":24.93930791,"name":"T\u00f6\u00f6l\u00f6nlahdenkatu","timestamp":"2023-10-18T20:35:03.933000Z"},{"empty_slots":3,"extra":{"uid":"022"},"free_bikes":23,"id":"72aea5a2b2a1fca28e1666354512b519","latitude":60.1706061,"longitude":24.9397601,"name":"Rautatientori / l\u00e4nsi","timestamp":"2023-10-18T20:35:03.937000Z"},{"empty_slots":15,"extra":{"uid":"023"},"free_bikes":17,"id":"6e4be04bf12a0f1eebd701beca48f30f","latitude":60.171273,"longitude":24.937106,"name":"Kiasma","timestamp":"2023-10-18T20:35:03.941000Z"},{"empty_slots":10,"extra":{"uid":"024"},"free_bikes":19,"id":"e7602c82ac0de81f48299dede77c0870","latitude":60.1690724,"longitude":24.9394195,"name":"Mannerheimintie","timestamp":"2023-10-18T20:35:03.944000Z"},{"empty_slots":37,"extra":{"uid":"025"},"free_bikes":4,"id":"88bdf1583f5c41c1e561035dc58ec6fd","latitude":60.1700420359,"longitude":24.93460698,"name":"Narinkka","timestamp":"2023-10-18T20:35:03.947000Z"},{"empty_slots":13,"extra":{"uid":"028"},"free_bikes":4,"id":"3b9c902dcb2225b847db82ff01739c8d","latitude":60.1658121,"longitude":24.927021,"name":"Lastenlehto","timestamp":"2023-10-18T20:35:03.957000Z"},{"empty_slots":11,"extra":{"uid":"029"},"free_bikes":5,"id":"17bc0c13cf106ad992ea814dc9dbd915","latitude":60.164088,"longitude":24.9225658,"name":"Baana","timestamp":"2023-10-18T20:35:03.959000Z"},{"empty_slots":37,"extra":{"uid":"030"},"free_bikes":3,"id":"45f8f4df2fea427a9b2e7ed8a21bab1b","latitude":60.1635309,"longitude":24.9145165,"name":"It\u00e4merentori","timestamp":"2023-10-18T20:35:03.965000Z"},{"empty_slots":20,"extra":{"uid":"032"},"free_bikes":0,"id":"0e4623a81415c8ff9be4fd04275c4ae8","latitude":60.1713589074265,"longitude":24.9318975121428,"name":"El\u00e4inmuseo","timestamp":"2023-10-18T20:35:03.968000Z"},{"empty_slots":14,"extra":{"uid":"033"},"free_bikes":3,"id":"7ba532af5b5d7f5dab43e1b74e8a898f","latitude":60.171196,"longitude":24.924894,"name":"Kauppakorkeakoulu","timestamp":"2023-10-18T20:35:03.971000Z"},{"empty_slots":12,"extra":{"uid":"034"},"free_bikes":5,"id":"101a8d31420c66b2ace1e14d4bd5c230","latitude":60.1739641,"longitude":24.9329875,"name":"Kansallismuseo","timestamp":"2023-10-18T20:35:03.975000Z"},{"empty_slots":15,"extra":{"uid":"035"},"free_bikes":1,"id":"b877623a3318113942411f683025cf2a","latitude":60.174063715,"longitude":24.92822758053,"name":"Cygnaeuksenkatu","timestamp":"2023-10-18T20:35:03.982000Z"},{"empty_slots":12,"extra":{"uid":"036"},"free_bikes":16,"id":"f9bf99951be4851901355b8bee9d0f00","latitude":60.1760798,"longitude":24.9223942,"name":"Apollonkatu","timestamp":"2023-10-18T20:35:03.986000Z"},{"empty_slots":13,"extra":{"uid":"037"},"free_bikes":6,"id":"b01bbdb60f3f02fd25e439e6a5698aa5","latitude":60.1775598,"longitude":24.9283272,"name":"T\u00f6\u00f6l\u00f6nkatu","timestamp":"2023-10-18T20:35:03.990000Z"},{"empty_slots":9,"extra":{"uid":"038"},"free_bikes":10,"id":"674107887521c151c8befbed2c24d05f","latitude":60.1791231,"longitude":24.9249114,"name":"T\u00f6\u00f6l\u00f6ntori","timestamp":"2023-10-18T20:35:03.993000Z"},{"empty_slots":11,"extra":{"uid":"039"},"free_bikes":24,"id":"3ff2b98435e9fb3abe0664c09af63115","latitude":60.1825529,"longitude":24.926687,"name":"Ooppera","timestamp":"2023-10-18T20:35:04Z"},{"empty_slots":29,"extra":{"uid":"041"},"free_bikes":8,"id":"51b61af20a523a2aaa87af26a2cec30e","latitude":60.180863,"longitude":24.9494,"name":"Ympyr\u00e4talo","timestamp":"2023-10-18T20:35:04.018000Z"},{"empty_slots":10,"extra":{"uid":"042"},"free_bikes":10,"id":"44a0fb2b0713c1173ded3592f1fda350","latitude":60.181949,"longitude":24.956806,"name":"Haapaniemenkatu","timestamp":"2023-10-18T20:35:04.025000Z"},{"empty_slots":13,"extra":{"uid":"045"},"free_bikes":8,"id":"bad7128429fb0924929fa4903edaee1c","latitude":60.1868618,"longitude":24.9509168,"name":"Brahen kentt\u00e4","timestamp":"2023-10-18T20:35:04.037000Z"},{"empty_slots":13,"extra":{"uid":"046"},"free_bikes":3,"id":"3e63d37565e9f37a24acf005662b28f2","latitude":60.186979,"longitude":24.943358,"name":"Diakoniapuisto","timestamp":"2023-10-18T20:35:04.040000Z"},{"empty_slots":4,"extra":{"uid":"047"},"free_bikes":41,"id":"c1e715431d3b4758fc1dddbf0e39fc9a","latitude":60.165343,"longitude":24.953535,"name":"Vanha Kauppahalli","timestamp":"2023-10-18T20:35:04.041000Z"},{"empty_slots":3,"extra":{"uid":"048"},"free_bikes":31,"id":"52cb1c1e8ee1dc29f9080fcc36f8961c","latitude":60.1647545,"longitude":24.9674861,"name":"Mastokatu","timestamp":"2023-10-18T20:35:04.042000Z"},{"empty_slots":6,"extra":{"uid":"049"},"free_bikes":11,"id":"bfa5eb262d60270041d3967340fe8c2d","latitude":60.16345894291,"longitude":24.94177084206,"name":"Annankatu","timestamp":"2023-10-18T20:35:04.043000Z"},{"empty_slots":5,"extra":{"uid":"050"},"free_bikes":8,"id":"c1d0a54a993645c5727c5ceeee027d31","latitude":60.1498127,"longitude":24.8861094,"name":"Melkonkuja","timestamp":"2023-10-18T20:35:04.061000Z"},{"empty_slots":10,"extra":{"uid":"051"},"free_bikes":2,"id":"b45fb7c532fef6f4e281ac4fefdaede9","latitude":60.15066,"longitude":24.8812502,"name":"It\u00e4lahdenkatu","timestamp":"2023-10-18T20:35:04.063000Z"},{"empty_slots":9,"extra":{"uid":"052"},"free_bikes":11,"id":"f36e109143c3a5667c72fa3e53f3743f","latitude":60.1540763,"longitude":24.8793159,"name":"Heikkil\u00e4naukio","timestamp":"2023-10-18T20:35:04.064000Z"},{"empty_slots":7,"extra":{"uid":"053"},"free_bikes":7,"id":"8d3c28d2071974a4568ce0018613acc8","latitude":60.156817,"longitude":24.8850653,"name":"Heikkil\u00e4ntie","timestamp":"2023-10-18T20:35:04.069000Z"},{"empty_slots":18,"extra":{"uid":"054"},"free_bikes":10,"id":"4d7a8299733be85cdbd872e303cfb1df","latitude":60.159644,"longitude":24.877286,"name":"Gyldenintie","timestamp":"2023-10-18T20:35:04.070000Z"},{"empty_slots":15,"extra":{"uid":"055"},"free_bikes":2,"id":"09b52b805d5affffddf76946d13e1818","latitude":60.157875,"longitude":24.86202,"name":"Puistokaari","timestamp":"2023-10-18T20:35:04.071000Z"},{"empty_slots":9,"extra":{"uid":"056"},"free_bikes":4,"id":"61b7df21d32a35c1373ea63c4464a23d","latitude":60.1654485,"longitude":24.8601992,"name":"Luoteisv\u00e4yl\u00e4","timestamp":"2023-10-18T20:35:04.072000Z"},{"empty_slots":25,"extra":{"uid":"057"},"free_bikes":1,"id":"acd9f4d55b49c8b2d98a03ab6f4f0855","latitude":60.1603306,"longitude":24.8815441,"name":"Lauttasaaren ostoskeskus","timestamp":"2023-10-18T20:35:04.073000Z"},{"empty_slots":14,"extra":{"uid":"059"},"free_bikes":36,"id":"023a0e7946dd20bb33a082c00b42ae4d","latitude":60.16478138043,"longitude":24.90096080349,"name":"Salmisaarenranta","timestamp":"2023-10-18T20:35:04.077000Z"},{"empty_slots":12,"extra":{"uid":"061"},"free_bikes":5,"id":"14c4cd52c417ef49d43810448e1c0313","latitude":60.1589276,"longitude":24.909692,"name":"L\u00e4nsisatamankatu","timestamp":"2023-10-18T20:35:04.089000Z"},{"empty_slots":6,"extra":{"uid":"062"},"free_bikes":11,"id":"f5f1fa61751b56f59ac2b6ba02830302","latitude":60.159296,"longitude":24.916241,"name":"V\u00e4limerenkatu","timestamp":"2023-10-18T20:35:04.090000Z"},{"empty_slots":20,"extra":{"uid":"063"},"free_bikes":4,"id":"72692014908ca850b098d6ec1b097547","latitude":60.161506,"longitude":24.921552,"name":"J\u00e4tk\u00e4saarenlaituri","timestamp":"2023-10-18T20:35:04.091000Z"},{"empty_slots":11,"extra":{"uid":"064"},"free_bikes":9,"id":"6e91df40eff87312bce6a007899c327d","latitude":60.156838,"longitude":24.920661,"name":"Tyynenmerenkatu","timestamp":"2023-10-18T20:35:04.091000Z"},{"empty_slots":7,"extra":{"uid":"065"},"free_bikes":76,"id":"3cd8b1428d90c1cf1f3ddaac501e697f","latitude":60.15352968178976,"longitude":24.93125406706023,"name":"Hernesaarenranta","timestamp":"2023-10-18T20:35:04.092000Z"},{"empty_slots":5,"extra":{"uid":"066"},"free_bikes":19,"id":"642d4b50171940e4fe703afb7d802128","latitude":60.155309,"longitude":24.9591271,"name":"Ehrenstr\u00f6mintie","timestamp":"2023-10-18T20:35:04.093000Z"},{"empty_slots":6,"extra":{"uid":"067"},"free_bikes":12,"id":"94ed161c2d23a4cefdf187f43d0f0b8d","latitude":60.1600875931318,"longitude":24.9340656851357,"name":"Per\u00e4miehenkatu","timestamp":"2023-10-18T20:35:04.095000Z"},{"empty_slots":11,"extra":{"uid":"070"},"free_bikes":5,"id":"e0ce4d52ad45f20a47b59a9cab66c435","latitude":60.1731473,"longitude":24.9224112,"name":"Sammonpuistikko","timestamp":"2023-10-18T20:35:04.146000Z"},{"empty_slots":11,"extra":{"uid":"073"},"free_bikes":3,"id":"d0d4bd4953d008f6d0c4c2149a968932","latitude":60.1792967,"longitude":24.9132504,"name":"Kes\u00e4katu","timestamp":"2023-10-18T20:35:04.149000Z"},{"empty_slots":14,"extra":{"uid":"074"},"free_bikes":5,"id":"0d14c42343eadfe93085f7649b7e726e","latitude":60.183137,"longitude":24.911127,"name":"Rajasaarentie","timestamp":"2023-10-18T20:35:04.150000Z"},{"empty_slots":14,"extra":{"uid":"075"},"free_bikes":10,"id":"18ec8a3291783f4d54976e6fcd5a859b","latitude":60.1838677,"longitude":24.9198371,"name":"Korjaamo","timestamp":"2023-10-18T20:35:04.151000Z"},{"empty_slots":11,"extra":{"uid":"076"},"free_bikes":11,"id":"ab0741899ad5f591a56875982727bfe8","latitude":60.1845055,"longitude":24.9249741,"name":"Olympiastadion","timestamp":"2023-10-18T20:35:04.152000Z"},{"empty_slots":8,"extra":{"uid":"077"},"free_bikes":8,"id":"d7918e90151537a752eddb1657681cb5","latitude":60.18523632967096,"longitude":24.91724984112588,"name":"Nordenski\u00f6ldinaukio","timestamp":"2023-10-18T20:35:04.152000Z"},{"empty_slots":16,"extra":{"uid":"078"},"free_bikes":5,"id":"d2e450bc32529e8d797be1d29cef3e4a","latitude":60.1878352,"longitude":24.9180102,"name":"Messeniuksenkatu","timestamp":"2023-10-18T20:35:04.153000Z"},{"empty_slots":18,"extra":{"uid":"079"},"free_bikes":0,"id":"b959f9946b9807f91152628cad187349","latitude":60.1892172,"longitude":24.9292286,"name":"Uimastadion","timestamp":"2023-10-18T20:35:04.157000Z"},{"empty_slots":21,"extra":{"uid":"080"},"free_bikes":1,"id":"7f50d65a850ae788b68347c9e77441d5","latitude":60.1894025,"longitude":24.9205978,"name":"J\u00e4\u00e4halli","timestamp":"2023-10-18T20:35:04.160000Z"},{"empty_slots":16,"extra":{"uid":"081"},"free_bikes":2,"id":"17190f3b04f3ae527db345e42b24fe52","latitude":60.18830908,"longitude":24.9123717,"name":"Stenb\u00e4ckinkatu","timestamp":"2023-10-18T20:35:04.161000Z"},{"empty_slots":11,"extra":{"uid":"082"},"free_bikes":1,"id":"0ad8d37c4c6c7d5f5659b26fbd8c0a17","latitude":60.19095693226663,"longitude":24.912827135427882,"name":"T\u00f6\u00f6l\u00f6ntulli","timestamp":"2023-10-18T20:35:04.164000Z"},{"empty_slots":28,"extra":{"uid":"083"},"free_bikes":1,"id":"05e5bb3302a4ea9401838cc1f1c19fb9","latitude":60.1902195,"longitude":24.9083351,"name":"Meilahden sairaala","timestamp":"2023-10-18T20:35:04.166000Z"},{"empty_slots":16,"extra":{"uid":"026"},"free_bikes":3,"id":"ca46df750e9941ab4e13b08a04d2fdce","latitude":60.16876693,"longitude":24.9308082,"name":"Kamppi (M)","timestamp":"2023-10-18T20:35:03.950000Z"},{"empty_slots":17,"extra":{"uid":"040"},"free_bikes":3,"id":"835bee50f32eed8b048c8ee0a2dd74a6","latitude":60.17952585,"longitude":24.9508981,"name":"Hakaniemi (M)","timestamp":"2023-10-18T20:35:04.015000Z"},{"empty_slots":18,"extra":{"uid":"068"},"free_bikes":3,"id":"234e290922479464dfbd0dd6ea77de5c","latitude":60.16185747,"longitude":24.93680505,"name":"Albertinkatu","timestamp":"2023-10-18T20:35:04.098000Z"},{"empty_slots":16,"extra":{"uid":"069"},"free_bikes":0,"id":"0355a9a3f28c32c4759b9465aafde916","latitude":60.16568017,"longitude":24.93142157,"name":"Kalevankatu","timestamp":"2023-10-18T20:35:04.118000Z"},{"empty_slots":14,"extra":{"uid":"084"},"free_bikes":0,"id":"75073104354808ec3fa3a322dfb380b8","latitude":60.19150747,"longitude":24.90134769,"name":"Paciuksenkatu","timestamp":"2023-10-18T20:35:04.166000Z"},{"empty_slots":6,"extra":{"uid":"020"},"free_bikes":21,"id":"9de5891dcd3ee932920d1b2bf580e365","latitude":60.17329,"longitude":24.94335,"name":"Kaisaniemenpuisto","timestamp":"2023-10-18T20:35:03.930000Z"},{"empty_slots":14,"extra":{"uid":"027"},"free_bikes":1,"id":"279c1dfa47e8e882927ec7fde70f7f70","latitude":60.1677057,"longitude":24.93664159,"name":"Eerikinkatu","timestamp":"2023-10-18T20:35:03.953000Z"},{"empty_slots":12,"extra":{"uid":"031"},"free_bikes":5,"id":"45ffee63c34e35414113b6dd9f5b96ec","latitude":60.168323,"longitude":24.922742,"name":"Marian sairaala","timestamp":"2023-10-18T20:35:03.967000Z"},{"empty_slots":6,"extra":{"uid":"043"},"free_bikes":18,"id":"4f91a44f6b10fe4fc2d11e8f103671d2","latitude":60.184098,"longitude":24.95321,"name":"Karhupuisto","timestamp":"2023-10-18T20:35:04.030000Z"},{"empty_slots":21,"extra":{"uid":"044"},"free_bikes":1,"id":"beabe08d892e5dc6bad90cac8bb13789","latitude":60.187715,"longitude":24.960584,"name":"S\u00f6rn\u00e4inen (M)","timestamp":"2023-10-18T20:35:04.032000Z"},{"empty_slots":7,"extra":{"uid":"058"},"free_bikes":13,"id":"8135dfaeae2bf577ebdea42e52b8910d","latitude":60.1615512,"longitude":24.8926386,"name":"Lauttasaarensilta","timestamp":"2023-10-18T20:35:04.074000Z"},{"empty_slots":24,"extra":{"uid":"071"},"free_bikes":2,"id":"deeaf0ba9fa7d5a939d936c670d35500","latitude":60.17265409,"longitude":24.91125654,"name":"Hietaniemenkatu","timestamp":"2023-10-18T20:35:04.147000Z"},{"empty_slots":19,"extra":{"uid":"072"},"free_bikes":2,"id":"f52b3c68aa4e68c153d3282202751119","latitude":60.175592,"longitude":24.914601,"name":"Etel\u00e4inen Hesperiankatu","timestamp":"2023-10-18T20:35:04.148000Z"},{"empty_slots":28,"extra":{"uid":"005"},"free_bikes":4,"id":"22b712a56405e7ebb27ce3a018680fb3","latitude":60.157926,"longitude":24.936152,"name":"Sep\u00e4nkatu","timestamp":"2023-10-18T20:35:03.871000Z"},{"empty_slots":8,"extra":{"uid":"060"},"free_bikes":17,"id":"bd60bd59035d27290d79eefd910994fb","latitude":60.161066,"longitude":24.903107,"name":"Kaapelitehdas","timestamp":"2023-10-18T20:35:04.083000Z"},{"empty_slots":15,"extra":{"uid":"08738d82-3e32-4ce0-a80d-fb6f5d1d558e"},"free_bikes":5,"id":"3b039f6beff7fd7d6de3209d0923d3a6","latitude":60.258764,"longitude":24.84306,"name":"Honkasuo","timestamp":"2023-10-18T20:35:02.923000Z"},{"empty_slots":6,"extra":{"uid":"e195471f-e2e3-4fad-9ec6-989fdef292b1"},"free_bikes":2,"id":"3eba8cd122d2c9bfeae441ae65682f59","latitude":60.322202,"longitude":25.041741,"name":"Leinel\u00e4n Puistotie","timestamp":"2023-10-18T20:35:02.952000Z"},{"empty_slots":15,"extra":{"uid":"4e964d6c-ca62-44e8-9ec0-c3d6864fe93f"},"free_bikes":5,"id":"6dcbb37ba3df688003258781457529f2","latitude":60.305651,"longitude":25.023289,"name":"Maitikka-aukio","timestamp":"2023-10-18T20:35:02.963000Z"},{"empty_slots":7,"extra":{"uid":"5bfba048-27bb-430a-be6f-45d2f4586587"},"free_bikes":13,"id":"8d7bda1aaeee5a0e1b3f1e7c98f8d990","latitude":60.26248,"longitude":24.847996,"name":"Meripihkatori","timestamp":"2023-10-18T20:35:02.977000Z"},{"empty_slots":10,"extra":{"uid":"9ef1bb0a-c35a-45db-8cfa-55e7dc0c2c1c"},"free_bikes":10,"id":"19441cc885d1565f6ca0b173dda9e548","latitude":60.269919,"longitude":24.846262,"name":"Kuohukuja","timestamp":"2023-10-18T20:35:02.978000Z"},{"empty_slots":15,"extra":{"uid":"31463dec-52b0-4304-ae27-4aabe980af69"},"free_bikes":5,"id":"e00065a03589231dc810f4946a04380b","latitude":60.300919,"longitude":25.054844,"name":"Hiekkaharjun liikuntapuisto","timestamp":"2023-10-18T20:35:02.978000Z"},{"empty_slots":11,"extra":{"uid":"7e7989c2-d952-479f-8b58-613a824ad261"},"free_bikes":9,"id":"85002efb08a4ad7a996e411eca6b7be4","latitude":60.260504,"longitude":24.839131,"name":"Energia Areena","timestamp":"2023-10-18T20:35:02.979000Z"},{"empty_slots":3,"extra":{"uid":"f95d3a5f-9951-4697-bf0e-2328a5646f6f"},"free_bikes":5,"id":"78b48843f37f12679ce20bb041566cba","latitude":60.301857,"longitude":25.023022,"name":"L\u00e4ntinen Valkoisenl\u00e4hteentie","timestamp":"2023-10-18T20:35:02.980000Z"},{"empty_slots":4,"extra":{"uid":"cc264aed-c5c9-4556-8239-0e0db8d5fe6c"},"free_bikes":4,"id":"8a0f459a9b4247ca57325f612fa9d5d3","latitude":60.31568,"longitude":25.099649,"name":"Peijaksentie","timestamp":"2023-10-18T20:35:02.981000Z"},{"empty_slots":5,"extra":{"uid":"4671581a-1bc1-4d29-a752-30e7b33c66f2"},"free_bikes":3,"id":"25a74917fb257450686dc72e8174bd8b","latitude":60.322365,"longitude":25.082665,"name":"Hanab\u00f6lentie","timestamp":"2023-10-18T20:35:02.982000Z"},{"empty_slots":-86,"extra":{"uid":"89cbaf4c-85b9-435b-acfa-c1708c4156f5"},"free_bikes":96,"id":"98530a6af3d5a1e4827aedb7bd8575cb","latitude":60.248309,"longitude":24.842282,"name":"Konala test station","timestamp":"2023-10-18T20:35:02.982000Z"},{"empty_slots":7,"extra":{"uid":"464650a8-8e47-4d6c-a9fa-b1719474c9c0"},"free_bikes":3,"id":"4c8f149003d2e3de7382463137b21443","latitude":60.265855,"longitude":24.973255,"name":"Tapaninkyl\u00e4ntie","timestamp":"2023-10-18T20:35:02.983000Z"},{"empty_slots":14,"extra":{"uid":"8f862e86-51ae-4138-8df4-c80862a109bf"},"free_bikes":6,"id":"cf1aef4184b4e3316493ca79bceecdff","latitude":60.30306,"longitude":25.04623,"name":"Talkootori","timestamp":"2023-10-18T20:35:02.984000Z"},{"empty_slots":9,"extra":{"uid":"abfefc85-2cc6-4eaa-9997-d3462052a69e"},"free_bikes":11,"id":"1d73685b60f5dbe6e81b89c73da55254","latitude":60.277484,"longitude":24.853032,"name":"Martinlaakson asema","timestamp":"2023-10-18T20:35:03.006000Z"},{"empty_slots":16,"extra":{"uid":"c478d948-80f8-46b2-a12a-14350c46fb61"},"free_bikes":4,"id":"bfd3543839e7ffe8c627dc3051f535f0","latitude":60.304728,"longitude":25.049303,"name":"Hiekkaharjun asema","timestamp":"2023-10-18T20:35:03.069000Z"},{"empty_slots":6,"extra":{"uid":"acebf619-32a8-461c-a84d-2b28a4efe0f0"},"free_bikes":4,"id":"a8fca480b1736e403416584317f21b5d","latitude":60.298773,"longitude":25.0626,"name":"Oljenkorsi","timestamp":"2023-10-18T20:35:03.093000Z"},{"empty_slots":5,"extra":{"uid":"bbe8b501-52d7-4f2a-8b05-d2821acb089b"},"free_bikes":5,"id":"0bcf7820e19ff19ca7c9a4ddaa4278de","latitude":60.289604,"longitude":24.95928,"name":"V\u00e4in\u00f6 Tannerin tie","timestamp":"2023-10-18T20:35:03.117000Z"},{"empty_slots":10,"extra":{"uid":"3003997a-626b-478f-a086-356d941ce56f"},"free_bikes":10,"id":"322d35a59a6cc1a1fef2034a34ac52c9","latitude":60.320133,"longitude":25.063381,"name":"Kyd\u00f6naukio","timestamp":"2023-10-18T20:35:03.149000Z"},{"empty_slots":4,"extra":{"uid":"7fbd1f6a-6c6d-4286-a341-752caafb9c08"},"free_bikes":4,"id":"6bdae6bf3585c8a4462ca368500c9f6e","latitude":60.289209,"longitude":25.030103,"name":"Tikkurilantie","timestamp":"2023-10-18T20:35:03.160000Z"},{"empty_slots":-3,"extra":{"uid":"b3cd7978-6b97-44b4-acab-746d93847bb4"},"free_bikes":13,"id":"d490923d2395a98809399641c7ad39e8","latitude":60.312475,"longitude":25.044498,"name":"Tarhurinaukio","timestamp":"2023-10-18T20:35:03.161000Z"},{"empty_slots":4,"extra":{"uid":"94e65239-e9a8-46d6-ad1a-264eb0a7a066"},"free_bikes":4,"id":"7d995e4dd3fb6e3f5441d3174ff58a10","latitude":60.29472,"longitude":25.041859,"name":"Kirjastopuisto","timestamp":"2023-10-18T20:35:03.163000Z"},{"empty_slots":15,"extra":{"uid":"baf97245-35e9-4ad4-b706-019d1c9efaa7"},"free_bikes":5,"id":"d20f81a636789cfd85e07868f1b8e448","latitude":60.293216,"longitude":25.042426,"name":"M\u00e4nnist\u00f6npolku","timestamp":"2023-10-18T20:35:03.194000Z"},{"empty_slots":9,"extra":{"uid":"fc859051-ff78-4377-a136-cd884c326abf"},"free_bikes":11,"id":"44c951d28790a416bd0c829983aeffff","latitude":60.310534,"longitude":25.03073,"name":"Leinikkitie","timestamp":"2023-10-18T20:35:03.248000Z"},{"empty_slots":4,"extra":{"uid":"e4967769-faca-47c5-b6e7-f19e849d6790"},"free_bikes":6,"id":"fd68c936bfa239d820f2480183a0dbb6","latitude":60.27922,"longitude":24.814618,"name":"Petikontie","timestamp":"2023-10-18T20:35:03.287000Z"},{"empty_slots":3,"extra":{"uid":"8f2308ff-a342-458e-8f87-3d710f88ee83"},"free_bikes":7,"id":"18e9393388dfefc6a3bb292b9a2a687f","latitude":60.257898,"longitude":24.867183,"name":"Aapraminkaari","timestamp":"2023-10-18T20:35:03.318000Z"},{"empty_slots":6,"extra":{"uid":"b9850ba9-1f07-4f36-81af-c385d5c36b7f"},"free_bikes":4,"id":"43e296f6ba3ec78e24c85a9a1314a867","latitude":60.293995,"longitude":24.972137,"name":"R\u00e4lssitie","timestamp":"2023-10-18T20:35:03.329000Z"},{"empty_slots":15,"extra":{"uid":"c7140907-75fd-4604-90df-3e69e8b3870d"},"free_bikes":5,"id":"acbc2e6b6b8816e9cd521e21e808b3ad","latitude":60.30255,"longitude":24.954782,"name":"Avia-aukio","timestamp":"2023-10-18T20:35:03.333000Z"},{"empty_slots":3,"extra":{"uid":"dabc6c37-9d3c-4305-a23d-df0a6e06bf75"},"free_bikes":7,"id":"b3e742eeffec7a8f9f2c526cfb1ad97b","latitude":60.277825,"longitude":24.867403,"name":"Martinlaaksontie","timestamp":"2023-10-18T20:35:03.334000Z"},{"empty_slots":3,"extra":{"uid":"b170b475-e0d0-407c-afb8-f9642c72d4f5"},"free_bikes":5,"id":"761697195415638430ecd96f7cd9e063","latitude":60.286306,"longitude":25.030498,"name":"Kielotie","timestamp":"2023-10-18T20:35:03.335000Z"},{"empty_slots":11,"extra":{"uid":"f4866528-f178-4c62-97f9-56a653e021ec"},"free_bikes":9,"id":"aaf671fb3aad6c50ef935e34376339a7","latitude":60.29961,"longitude":25.028427,"name":"Tikkurilan urheilupuisto","timestamp":"2023-10-18T20:35:03.362000Z"},{"empty_slots":16,"extra":{"uid":"8189d2dd-8dda-4580-b24f-7af3c18f0531"},"free_bikes":4,"id":"5c9b33ef301bdff70b9de015a45042a2","latitude":60.294825,"longitude":24.844224,"name":"Vehkalan asema","timestamp":"2023-10-18T20:35:03.381000Z"},{"empty_slots":8,"extra":{"uid":"457580d2-51d5-4e63-b728-295404d1147b"},"free_bikes":0,"id":"f62e5d750a0783fbab08321f51a04891","latitude":60.296321,"longitude":25.039783,"name":"Vantaan aikuisopisto","timestamp":"2023-10-18T20:35:03.385000Z"},{"empty_slots":11,"extra":{"uid":"18c7e07f-03ea-47d8-9851-23c078cc1711"},"free_bikes":9,"id":"276efe0faac34b7fd8ec859ae20d892b","latitude":60.287829,"longitude":25.033286,"name":"Virnatie","timestamp":"2023-10-18T20:35:03.397000Z"},{"empty_slots":10,"extra":{"uid":"acf2548a-9321-4fcc-b23b-a2f4b241b5a4"},"free_bikes":10,"id":"097967e4800d120758ffaafe74d56e82","latitude":60.293413,"longitude":25.036411,"name":"Tikkuraitti","timestamp":"2023-10-18T20:35:03.409000Z"},{"empty_slots":9,"extra":{"uid":"6fe85667-5fa3-44e1-b0ae-61cebfbe4bd0"},"free_bikes":11,"id":"b1c892fbf9fa24a5d8bef47cc2e6378d","latitude":60.298238,"longitude":25.050165,"name":"Jokiniemenkatu","timestamp":"2023-10-18T20:35:03.417000Z"},{"empty_slots":4,"extra":{"uid":"e2da7c2f-4c76-42c8-99f8-b24049d790b4"},"free_bikes":6,"id":"018ebcea9af5933b0848c20c4f71eedb","latitude":60.30353,"longitude":24.912385,"name":"Tahkotie","timestamp":"2023-10-18T20:35:03.429000Z"},{"empty_slots":15,"extra":{"uid":"1eb00678-face-401b-a8c1-7a94fdea51d4"},"free_bikes":5,"id":"c528ca42f6eab2d1587e25a36d285d4b","latitude":60.281898,"longitude":24.875314,"name":"Vaisala","timestamp":"2023-10-18T20:35:03.432000Z"},{"empty_slots":16,"extra":{"uid":"6fdb3726-0da7-47cb-bd61-bbbc7871e536"},"free_bikes":4,"id":"720592b9c9ef8bb70a188918f13ae602","latitude":60.315568,"longitude":25.040693,"name":"Malminiitynpuisto","timestamp":"2023-10-18T20:35:03.437000Z"},{"empty_slots":10,"extra":{"uid":"0d685ae6-7322-49e7-a027-cdf907414c43"},"free_bikes":10,"id":"3af953fa10350f0e9ac7e27d4a42a155","latitude":60.284701,"longitude":24.959207,"name":"Hagelstamintie","timestamp":"2023-10-18T20:35:03.466000Z"},{"empty_slots":15,"extra":{"uid":"74bb187d-2f8b-45fc-b5fc-54efc94da9e6"},"free_bikes":5,"id":"212acb8678449c4c56c47e03ef0f6210","latitude":60.269092,"longitude":24.966753,"name":"Tammistonkatu","timestamp":"2023-10-18T20:35:03.481000Z"},{"empty_slots":16,"extra":{"uid":"b0e83047-fc92-46f1-acbd-727a9b08a6d4"},"free_bikes":4,"id":"881db30bc258f6adfed7e0584d40aee7","latitude":60.285229,"longitude":24.849112,"name":"Vantaankosken asema","timestamp":"2023-10-18T20:35:03.503000Z"},{"empty_slots":12,"extra":{"uid":"b381d2e8-cfdc-4b7a-8985-10571ad563da"},"free_bikes":8,"id":"d00a57a2fa2d8cb3ed4c6d04f36addd6","latitude":60.315565,"longitude":24.849596,"name":"Kivist\u00f6n asema","timestamp":"2023-10-18T20:35:03.560000Z"},{"empty_slots":13,"extra":{"uid":"3f497b43-b664-4afd-b6d6-44eed1059cf0"},"free_bikes":7,"id":"204c4bec0b6447d10fab6c52825faf53","latitude":60.270159,"longitude":24.85318,"name":"Louhelan asema","timestamp":"2023-10-18T20:35:03.609000Z"},{"empty_slots":3,"extra":{"uid":"479c9f74-ae6b-4168-8d09-327839cc4c5e"},"free_bikes":7,"id":"0638a3513b0d9140b222b4eefb098d46","latitude":60.313457,"longitude":25.026576,"name":"Sananjalanpolku","timestamp":"2023-10-18T20:35:03.611000Z"},{"empty_slots":2,"extra":{"uid":"15d24655-18b1-4119-97dd-f7de2d450c00"},"free_bikes":6,"id":"0474532f8a813bdd9f4a33d440c3f4f6","latitude":60.298357,"longitude":25.017637,"name":"Lummetie","timestamp":"2023-10-18T20:35:03.618000Z"},{"empty_slots":8,"extra":{"uid":"e7d7521c-3e21-4152-99fe-da08742598d6"},"free_bikes":12,"id":"6fc7324e35a663aacb58c7e8af0adae5","latitude":60.323272,"longitude":25.059884,"name":"Koivukyl\u00e4n asema","timestamp":"2023-10-18T20:35:03.626000Z"},{"empty_slots":16,"extra":{"uid":"20e7e636-ab07-47c3-9399-4cbc43a70b45"},"free_bikes":4,"id":"364b8a6b1baf79fa9bb2ec51c8142237","latitude":60.293027,"longitude":25.05158,"name":"Rillitori","timestamp":"2023-10-18T20:35:03.671000Z"},{"empty_slots":12,"extra":{"uid":"39a1bb62-35e3-4ea0-94c9-e6b94f646829"},"free_bikes":8,"id":"1d688429ecd077471211c56c84027ec5","latitude":60.291863,"longitude":25.044952,"name":"Maalitori","timestamp":"2023-10-18T20:35:03.693000Z"},{"empty_slots":11,"extra":{"uid":"5ec391fc-b293-46e9-ba81-57a1f9611240"},"free_bikes":9,"id":"44599eebac1dff2e4d00dcce06e708df","latitude":60.291098,"longitude":25.022012,"name":"Liljatie","timestamp":"2023-10-18T20:35:03.714000Z"},{"empty_slots":-1,"extra":{"uid":"368c02a3-ee0b-4d38-9bf3-65c9e0848bbf"},"free_bikes":11,"id":"c00c30f0edb58d47aa9fe9ee2f080856","latitude":60.271084,"longitude":24.803851,"name":"Ainontie","timestamp":"2023-10-18T20:35:03.752000Z"},{"empty_slots":8,"extra":{"uid":"fabe5eea-731c-463a-96b9-43b9e9900c31"},"free_bikes":2,"id":"9810a07f26037d71c7c994f48982ce84","latitude":60.30467,"longitude":24.965959,"name":"Teknobulevardi","timestamp":"2023-10-18T20:35:03.752000Z"},{"empty_slots":0,"extra":{"uid":"b7ad2688-0ed3-497b-b56d-4362e2d39fa2"},"free_bikes":10,"id":"ea7b0e779692b10deac011d32040c7cd","latitude":60.268954,"longitude":24.820185,"name":"Luhtim\u00e4ki","timestamp":"2023-10-18T20:35:03.753000Z"},{"empty_slots":4,"extra":{"uid":"e7380da9-5370-404a-aabb-c9df4b2681a1"},"free_bikes":6,"id":"fbc053224e3ac7336704a809f719e69b","latitude":60.294786,"longitude":24.922311,"name":"Ansatie","timestamp":"2023-10-18T20:35:03.754000Z"},{"empty_slots":14,"extra":{"uid":"ac9dfe32-a280-4214-9fd3-b36412809520"},"free_bikes":6,"id":"8843b86d200dde7742b25d185de00535","latitude":60.260966,"longitude":24.85481,"name":"Myyrm\u00e4en asema","timestamp":"2023-10-18T20:35:03.814000Z"},{"empty_slots":10,"extra":{"uid":"7eb7a138-2b68-4b98-8f1f-6d95b817928a"},"free_bikes":10,"id":"7b10ffdc8272e2180a2daaddc70d8e26","latitude":60.289566,"longitude":24.948991,"name":"Pakkalan puistotie","timestamp":"2023-10-18T20:35:03.815000Z"},{"empty_slots":10,"extra":{"uid":"6f9fe30f-c0f8-4cc1-94a8-e159a8009cfc"},"free_bikes":10,"id":"1904ab2a1d9cc0b4b0ee1024fedbd016","latitude":60.26555,"longitude":24.852125,"name":"Myyrm\u00e4en uimahalli","timestamp":"2023-10-18T20:35:03.821000Z"},{"empty_slots":8,"extra":{"uid":"bd705748-7c8b-4674-a959-8cdec84f1080"},"free_bikes":0,"id":"e014ff7b665f80a36e099e99f319d165","latitude":60.317041,"longitude":25.026532,"name":"M\u00f6sk\u00e4rinm\u00e4ki","timestamp":"2023-10-18T20:35:03.822000Z"},{"empty_slots":14,"extra":{"uid":"1d5f95bb-daf4-49ef-8740-0a706ad4f707"},"free_bikes":6,"id":"6dd9330407cec6c8344c5d4eb726d0ba","latitude":60.263718,"longitude":24.840966,"name":"Myyrm\u00e4en j\u00e4\u00e4halli","timestamp":"2023-10-18T20:35:03.884000Z"},{"empty_slots":14,"extra":{"uid":"a8dcc31b-99eb-421e-b509-f50573c35cfb"},"free_bikes":6,"id":"a2d71521c74740fac54b1e43a2ce987c","latitude":60.293565,"longitude":25.02995,"name":"Peltolantori","timestamp":"2023-10-18T20:35:03.885000Z"},{"empty_slots":6,"extra":{"uid":"34dd920f-ed7a-4b54-a1bc-45103fb1d474"},"free_bikes":4,"id":"280d8273f9d7697b9da962c3ca577a83","latitude":60.295268,"longitude":24.907064,"name":"Riistakuja","timestamp":"2023-10-18T20:35:03.886000Z"},{"empty_slots":-2,"extra":{"uid":"01b1be29-1884-4aaa-9e10-4faa0b2a036b"},"free_bikes":10,"id":"55b216604c19cb952077fcfcee2c75cd","latitude":60.29155,"longitude":25.017565,"name":"Osmank\u00e4\u00e4mintie","timestamp":"2023-10-18T20:35:03.887000Z"},{"empty_slots":2,"extra":{"uid":"1e42bbce-5620-43b6-82e5-25b758920e1f"},"free_bikes":6,"id":"27ecb96c79708e95bd7d48549fca1a41","latitude":60.295238,"longitude":25.048959,"name":"Eric Von Rettingin puisto","timestamp":"2023-10-18T20:35:03.903000Z"},{"empty_slots":9,"extra":{"uid":"d8878e09-0ec8-4c54-a912-0edd9d5ea828"},"free_bikes":11,"id":"b5ac84e318ed34fe3a9d0d331e500cf2","latitude":60.281198,"longitude":24.966026,"name":"Hagelstaminpuisto","timestamp":"2023-10-18T20:35:03.920000Z"},{"empty_slots":15,"extra":{"uid":"55a08b2c-7155-47fa-bbb0-d8eafff2c393"},"free_bikes":5,"id":"4df98ce919ef936604f81789266a427e","latitude":60.323203,"longitude":25.037522,"name":"Leinel\u00e4n asema","timestamp":"2023-10-18T20:35:03.923000Z"},{"empty_slots":20,"extra":{"uid":"b79a95c7-3163-4a51-8a38-f9b6d977f225"},"free_bikes":0,"id":"f408e11666d067ff2556426c1168b190","latitude":60.305433,"longitude":24.958831,"name":"Karhum\u00e4enportti","timestamp":"2023-10-18T20:35:03.924000Z"},{"empty_slots":4,"extra":{"uid":"5298abdd-701b-4a7d-ac43-c90c5b13daae"},"free_bikes":4,"id":"1dc5a134c58cb17f87bbea8b0509488e","latitude":60.301463,"longitude":25.04101,"name":"Kukkakimpunpuisto","timestamp":"2023-10-18T20:35:03.956000Z"},{"empty_slots":1,"extra":{"uid":"32090cad-6d82-41a7-996f-b638a48e69c0"},"free_bikes":7,"id":"3c95d336dd86cf37321388065a289131","latitude":60.291738,"longitude":25.042417,"name":"Ratatie","timestamp":"2023-10-18T20:35:03.985000Z"},{"empty_slots":3,"extra":{"uid":"026fc2cb-8c1d-489c-a8a7-77634161bfd5"},"free_bikes":7,"id":"8be297425ade5a060c90bc628d555d34","latitude":60.269449,"longitude":24.878987,"name":"Vetokuja","timestamp":"2023-10-18T20:35:04.001000Z"},{"empty_slots":15,"extra":{"uid":"3d3399bd-79d1-42f6-aac8-d1f5caeddce4"},"free_bikes":5,"id":"3b61e68b277513715952ec32e426bce2","latitude":60.261874,"longitude":24.806577,"name":"Lammasrinne","timestamp":"2023-10-18T20:35:04.002000Z"},{"empty_slots":5,"extra":{"uid":"e5b85222-4014-438d-9075-78801b7a2282"},"free_bikes":5,"id":"8c73746dda8d56be4bc77a23ee29a634","latitude":60.331727,"longitude":25.06126,"name":"Sairaalakatu","timestamp":"2023-10-18T20:35:04.003000Z"},{"empty_slots":4,"extra":{"uid":"12ec4412-fa32-430b-afae-4aba7bc46b1f"},"free_bikes":4,"id":"b620209e6691265fc67abb45828f842a","latitude":60.327625,"longitude":25.096757,"name":"Laurintie","timestamp":"2023-10-18T20:35:04.004000Z"},{"empty_slots":0,"extra":{"uid":"193159b8-a8e2-4ee5-8db3-f880e3811f91"},"free_bikes":10,"id":"943c122f14ada60e55a0e98a62e49a3a","latitude":60.284607,"longitude":24.9107,"name":"Ollaksentie","timestamp":"2023-10-18T20:35:04.005000Z"},{"empty_slots":5,"extra":{"uid":"5ae25984-30e5-4092-b4a3-81f24979c58d"},"free_bikes":5,"id":"6bc77f4570286d0b33ed1d43112813ca","latitude":60.307614,"longitude":24.850754,"name":"Mestarintie","timestamp":"2023-10-18T20:35:04.006000Z"},{"empty_slots":11,"extra":{"uid":"37e3d0bb-ea6d-469e-b913-eed3db8b6f96"},"free_bikes":9,"id":"2be2648d0ce270f23bd8c56378f7d2bd","latitude":60.295917,"longitude":24.962797,"name":"Robert Huberin tie","timestamp":"2023-10-18T20:35:04.007000Z"},{"empty_slots":8,"extra":{"uid":"f84099ff-45a0-4248-a96c-8973dc5986fb"},"free_bikes":12,"id":"6fc832fce8b5a39512e88adc659132cf","latitude":60.257154,"longitude":24.852674,"name":"Kilterinaukio","timestamp":"2023-10-18T20:35:04.017000Z"},{"empty_slots":6,"extra":{"uid":"cc17c40e-9ee8-4e06-87f1-332222cea4a1"},"free_bikes":4,"id":"b55303a0db5dd8292107c0abc3321a23","latitude":60.254641,"longitude":24.814555,"name":"Koivuvaarankuja","timestamp":"2023-10-18T20:35:04.022000Z"},{"empty_slots":5,"extra":{"uid":"e9741b44-d2a8-4a2f-a957-66d1091ce184"},"free_bikes":5,"id":"3f3ec8e647d59986a958165b67f3cab5","latitude":60.290333,"longitude":24.866343,"name":"Kauppalaivurintie","timestamp":"2023-10-18T20:35:04.036000Z"},{"empty_slots":8,"extra":{"uid":"db801e0a-5ee8-4a96-955c-6a97576abc75"},"free_bikes":0,"id":"85265b3f54d0adbc0c5f5a18af10200a","latitude":60.304788,"longitude":25.041523,"name":"Hiekkatie","timestamp":"2023-10-18T20:35:04.044000Z"},{"empty_slots":4,"extra":{"uid":"de3a5510-bda9-40c7-94b7-60c6a3595b0d"},"free_bikes":4,"id":"388e8e358f9d911b30cc02e9b71ed7ae","latitude":60.274797,"longitude":24.857056,"name":"Jokiuomanpuisto","timestamp":"2023-10-18T20:35:04.046000Z"},{"empty_slots":15,"extra":{"uid":"01f04033-9177-4de4-83de-cf21d3de2491"},"free_bikes":5,"id":"4d139a2317f7376d387afbaa77001f99","latitude":60.295696,"longitude":25.059506,"name":"Urheilutie","timestamp":"2023-10-18T20:35:04.048000Z"},{"empty_slots":16,"extra":{"uid":"50524630-86bf-4710-89f3-aa7f19de972f"},"free_bikes":4,"id":"830013e02567ba17077686f3893ce26c","latitude":60.294026,"longitude":25.018708,"name":"Kurjenpolvenpuisto","timestamp":"2023-10-18T20:35:04.048000Z"},{"empty_slots":12,"extra":{"uid":"ab0e4c37-d5ed-40ed-a512-3d032dda189e"},"free_bikes":8,"id":"e758dbaea772b5129db798fa6a2f3a75","latitude":60.299485,"longitude":25.04187,"name":"Suopursunaukio","timestamp":"2023-10-18T20:35:04.053000Z"},{"empty_slots":3,"extra":{"uid":"f9cde94a-1e47-4e7c-bb20-e395ca8051e2"},"free_bikes":7,"id":"d488df608a47deb8e13e0e8a520d5cf2","latitude":60.28178,"longitude":24.848385,"name":"Laajavuorentie","timestamp":"2023-10-18T20:35:04.054000Z"},{"empty_slots":14,"extra":{"uid":"5e4ae3f9-5975-4a62-82c0-007629360f5f"},"free_bikes":6,"id":"303b13519c1a334e7ef9ddd7785f14dc","latitude":60.256599,"longitude":24.805655,"name":"P\u00e4hkin\u00e4rinteen kirjasto","timestamp":"2023-10-18T20:35:04.055000Z"},{"empty_slots":4,"extra":{"uid":"3ba9fc15-bdb0-4798-9903-f9b4d6e69290"},"free_bikes":4,"id":"03bb55e98a30be47373ccd2c30ee55f9","latitude":60.304383,"longitude":25.033609,"name":"Lemmikkitie","timestamp":"2023-10-18T20:35:04.078000Z"},{"empty_slots":17,"extra":{"uid":"d415db2b-5902-462d-8097-29e548a0edc7"},"free_bikes":3,"id":"15226b60d37b67ad2729ea9106de5e28","latitude":60.29024,"longitude":24.964363,"name":"Jumbo P1-taso","timestamp":"2023-10-18T20:35:04.079000Z"},{"empty_slots":6,"extra":{"uid":"e571eaf5-8fcb-4876-8222-d6e768b8e9c8"},"free_bikes":4,"id":"93e8c80a3cc03252434b0fca9b62eb65","latitude":60.306742,"longitude":24.89866,"name":"Suokalliontie","timestamp":"2023-10-18T20:35:04.081000Z"},{"empty_slots":10,"extra":{"uid":"643d3bf2-d046-4385-b642-884e5ddc9274"},"free_bikes":10,"id":"b2751590d67fe9950a5db730df6a9446","latitude":60.32175,"longitude":24.853488,"name":"Rubiinipuisto","timestamp":"2023-10-18T20:35:04.082000Z"},{"empty_slots":6,"extra":{"uid":"e6a34715-bac6-4f3a-8214-33693d6a9236"},"free_bikes":4,"id":"5e9f8ac7fd347eb7355ebf4283975d8e","latitude":60.30122,"longitude":24.856554,"name":"Vantaanpuisto","timestamp":"2023-10-18T20:35:04.094000Z"},{"empty_slots":10,"extra":{"uid":"70397d13-0b24-4743-800d-c553c62dee3c"},"free_bikes":10,"id":"2e59b1c72a8104eed2ed84c32bac33c7","latitude":60.320688,"longitude":25.072953,"name":"Sauvatie","timestamp":"2023-10-18T20:35:04.121000Z"},{"empty_slots":6,"extra":{"uid":"efdb7485-28f9-4a76-a471-8c130283026a"},"free_bikes":4,"id":"30302aa4892847f87e61a52daff5d70d","latitude":60.2963,"longitude":24.891487,"name":"Tuupakankuja","timestamp":"2023-10-18T20:35:04.140000Z"},{"empty_slots":16,"extra":{"uid":"09d09a4d-ac20-406f-aa5c-2c35335e8aa3"},"free_bikes":4,"id":"297e86332557223c635fb54e54e8418a","latitude":60.29574,"longitude":25.033618,"name":"Hernetie","timestamp":"2023-10-18T20:35:04.145000Z"},{"empty_slots":8,"extra":{"uid":"634fd4cb-523c-4cec-82de-c4e83eb580f5"},"free_bikes":0,"id":"f5da25e3c273822bcb0bfd8ee1916ea0","latitude":60.306155,"longitude":25.028634,"name":"Raatetie","timestamp":"2023-10-18T20:35:04.158000Z"},{"empty_slots":17,"extra":{"uid":"bacd3526-5f02-42ac-9c09-194a3ec310ca"},"free_bikes":3,"id":"b8f210eaf07c8fa6c1300a7860e45980","latitude":60.313265,"longitude":25.035116,"name":"Malminiitynpolku","timestamp":"2023-10-18T20:35:04.159000Z"},{"empty_slots":3,"extra":{"uid":"77a17d8b-b89f-4e4e-a820-95ffc9c63a42"},"free_bikes":5,"id":"da90578c0e07c428f93707c41d4e72c7","latitude":60.324463,"longitude":25.040961,"name":"Mets\u00e4nhenki","timestamp":"2023-10-18T20:35:04.165000Z"},{"empty_slots":16,"extra":{"uid":"b7cdf04b-ed74-4a7c-b0e7-e48c456af18c"},"free_bikes":4,"id":"50cfd962e5b7fd600767f486599d9e4b","latitude":60.290927,"longitude":24.962398,"name":"Jumbo P3-taso","timestamp":"2023-10-18T20:35:04.184000Z"},{"empty_slots":4,"extra":{"uid":"0302c772-1ca4-4d6e-a45c-52e8dc278ca1"},"free_bikes":6,"id":"d0dc670bb62f60e0aa4b1ca2338b6d14","latitude":60.299896,"longitude":24.973481,"name":"Pyht\u00e4\u00e4nkorventie","timestamp":"2023-10-18T20:35:04.185000Z"},{"empty_slots":5,"extra":{"uid":"9db9b4d1-05b9-44a8-be31-0985562fca9f"},"free_bikes":5,"id":"dcc830c3a9bba1d8c1552c4216983fde","latitude":60.276218,"longitude":24.970321,"name":"Tammistontie","timestamp":"2023-10-18T20:35:04.192000Z"},{"empty_slots":23,"extra":{"uid":"1d9416f5-60de-4768-8009-1b1a20d5f184"},"free_bikes":7,"id":"d1d6e712093438104e59c2a2204a4b77","latitude":60.294775,"longitude":25.044587,"name":"Tikkurilan asema","timestamp":"2023-10-18T20:35:04.201000Z"},{"empty_slots":7,"extra":{"uid":"6ac6da39-0f6c-4f41-81f7-e8fa6f230418"},"free_bikes":3,"id":"e81b738c221814913650e06a68771385","latitude":60.27952,"longitude":24.956351,"name":"Kartanonkosken liikuntapuisto","timestamp":"2023-10-18T20:35:04.203000Z"},{"empty_slots":9,"extra":{"uid":"a92430e1-95a1-4686-a557-68c5f9371798"},"free_bikes":11,"id":"0fb5912fc2abe40db8afa922f46beb88","latitude":60.289963,"longitude":24.968076,"name":"Tasetie","timestamp":"2023-10-18T20:35:04.204000Z"},{"empty_slots":4,"extra":{"uid":"9bc19764-bc2c-492f-a84a-dd93468ffead"},"free_bikes":6,"id":"f797c430943a0129c63f183357b17b03","latitude":60.279126,"longitude":24.840024,"name":"Kiskanpuisto","timestamp":"2023-10-18T20:35:04.205000Z"},{"empty_slots":14,"extra":{"uid":"1d636fc7-087c-4f53-9315-6e6b40a02466"},"free_bikes":6,"id":"888ce0fa9addf31bda1fe482467c53ef","latitude":60.262773,"longitude":24.854638,"name":"Liesikuja","timestamp":"2023-10-18T20:35:04.207000Z"},{"empty_slots":17,"extra":{"uid":"2ddfa4ec-6408-431f-b6d3-f3e6f18ce45f"},"free_bikes":3,"id":"556a82f6addb9061eae5d8f4ac1da0e2","latitude":60.279095,"longitude":24.861178,"name":"Kukinkuja","timestamp":"2023-10-18T20:35:04.209000Z"},{"empty_slots":13,"extra":{"uid":"9ed67ef1-188a-4020-b0ab-cf4d0113d5ee"},"free_bikes":7,"id":"ce6b4fc141c6926736e3119a7a6d5c65","latitude":60.323628,"longitude":25.061809,"name":"Koivutori","timestamp":"2023-10-18T20:35:04.213000Z"},{"empty_slots":13,"extra":{"uid":"cf170ba8-98d3-4cd1-abac-a0b2fffe90fd"},"free_bikes":7,"id":"f7a099c87d29eee4a342a4c3271c10c4","latitude":60.313387,"longitude":24.968139,"name":"Teletie","timestamp":"2023-10-18T20:35:04.214000Z"},{"empty_slots":10,"extra":{"uid":"dcb05f0f-6634-41be-807b-66f3d0f82a2d"},"free_bikes":10,"id":"9ec112eabc796f97b6a781be57e953f7","latitude":60.263919,"longitude":24.871641,"name":"Vuorimestarintori","timestamp":"2023-10-18T20:35:04.215000Z"},{"empty_slots":13,"extra":{"uid":"376af8ae-3bff-4f4b-84f8-3edf199d3a9c"},"free_bikes":7,"id":"e869abce7930681517f43a492a9bc127","latitude":60.333005,"longitude":25.067436,"name":"Rekolan asema","timestamp":"2023-10-18T20:35:04.216000Z"},{"empty_slots":4,"extra":{"uid":"d2b22dde-297e-4f09-badb-5d7f6241bd84"},"free_bikes":6,"id":"291ac80ef7ad15c130978a2cdc8aea49","latitude":60.283192,"longitude":24.872494,"name":"Vantaanlaaksontie","timestamp":"2023-10-18T20:35:04.217000Z"},{"empty_slots":3,"extra":{"uid":"f3d4fc14-d048-4069-bff4-b2f0391471c6"},"free_bikes":5,"id":"b366a4af525e399391bb9bb21e42506d","latitude":60.307504,"longitude":25.035939,"name":"Hiekkaharjun koulu","timestamp":"2023-10-18T20:35:04.221000Z"},{"empty_slots":0,"extra":{"uid":"9aadc3d5-e0b1-4b6e-8bb1-d49062f8c527"},"free_bikes":8,"id":"a9f5da3a582121baf0e4b0f87e0f5b23","latitude":60.314238,"longitude":25.112538,"name":"Kuusij\u00e4rvi","timestamp":"2023-10-18T20:35:04.222000Z"},{"empty_slots":0,"extra":{"uid":"f4ded82d-e3a5-46fe-b8d4-cfcd7cc0c25b"},"free_bikes":10,"id":"4028e0b5e0719beb6211b163af22db3a","latitude":60.268743,"longitude":24.872483,"name":"Kaivokselantie","timestamp":"2023-10-18T20:35:04.222000Z"},{"empty_slots":6,"extra":{"uid":"0246f146-6cd8-44d5-8565-0caaab7869d5"},"free_bikes":4,"id":"906474a07268bf48077711eb5c242ebd","latitude":60.300509,"longitude":24.932671,"name":"Osumakuja","timestamp":"2023-10-18T20:35:04.223000Z"},{"empty_slots":-4,"extra":{"uid":"5755e70a-d83c-48c5-ba9a-08f8e4869914"},"free_bikes":14,"id":"c53235740e2988a03183d2354d6d6feb","latitude":60.282496,"longitude":24.974475,"name":"Tammiston kauppatie","timestamp":"2023-10-18T20:35:04.225000Z"},{"empty_slots":6,"extra":{"uid":"cc42b4d1-138b-4c80-af13-8ac6faee95ea"},"free_bikes":2,"id":"f90a30acd27b6b44eee9d04ea55bb283","latitude":60.285346,"longitude":25.044907,"name":"Sep\u00e4npiha","timestamp":"2023-10-18T20:35:04.227000Z"},{"empty_slots":16,"extra":{"uid":"42fdc17f-7d83-4161-8e36-151dff2a5a3a"},"free_bikes":4,"id":"396ff2baa583602adb9e9e2929e1dcb0","latitude":60.29216,"longitude":25.006456,"name":"Puutarhatie","timestamp":"2023-10-18T20:35:04.231000Z"},{"empty_slots":15,"extra":{"uid":"6dd5413c-8ea0-4c6c-8b61-7ebbc1b0b7d6"},"free_bikes":5,"id":"72e5281c11a7af47d7dde4b6f800a7ec","latitude":60.288622,"longitude":25.041903,"name":"Heureka","timestamp":"2023-10-18T20:35:04.232000Z"},{"empty_slots":5,"extra":{"uid":"86a91742-9483-4a6a-b3fc-9eeaa8ce8df0"},"free_bikes":5,"id":"64d8970c119ec2fa294e80bdbcecb675","latitude":60.293519,"longitude":24.94836,"name":"Antaksentie","timestamp":"2023-10-18T20:35:04.233000Z"},{"empty_slots":10,"extra":{"uid":"a1f8ab05-357d-47d0-bbb7-9ca7337d4d9a"},"free_bikes":10,"id":"387d39bf3b6eb4b094211be0011bcd0b","latitude":60.259273,"longitude":24.830079,"name":"Nuijatie","timestamp":"2023-10-18T20:35:04.234000Z"},{"empty_slots":3,"extra":{"uid":"33a384ec-58b6-436e-8091-64b52e53f9e1"},"free_bikes":5,"id":"2b1bee6aacce406e92932f6b4d42d1d4","latitude":60.293603,"longitude":25.025384,"name":"Koiruohonpuisto","timestamp":"2023-10-18T20:35:04.235000Z"},{"empty_slots":4,"extra":{"uid":"338a3275-7c6c-4ceb-9758-56793d6b845b"},"free_bikes":6,"id":"0bbf17561f3eb044e03e7eba991478a7","latitude":60.265119,"longitude":24.881599,"name":"Silvola","timestamp":"2023-10-18T20:35:04.237000Z"},{"empty_slots":1,"extra":{"uid":"fa438b3b-4c3a-43e6-b0cc-cde55abb9d97"},"free_bikes":9,"id":"7eb501101b778e3278775f9af53e35a8","latitude":60.277978,"longitude":24.821893,"name":"Martinkyl\u00e4ntie","timestamp":"2023-10-18T20:35:04.239000Z"},{"empty_slots":14,"extra":{"uid":"da2baaae-0088-43c2-bc39-6af81f5971c9"},"free_bikes":6,"id":"510bc2420287b70ecbf4c4535014f996","latitude":60.318755,"longitude":24.849931,"name":"Aurinkokivenpiha","timestamp":"2023-10-18T20:35:04.241000Z"},{"empty_slots":16,"extra":{"uid":"18f92d2d-cd72-4d2e-a31d-69e61024671a"},"free_bikes":4,"id":"d826c962066a9c45b74e1b605d433113","latitude":60.27584,"longitude":24.845512,"name":"Martinlaakson uimahalli","timestamp":"2023-10-18T20:35:04.244000Z"},{"empty_slots":10,"extra":{"uid":"8f9fa3a0-0c15-4dc6-800e-76fb4eb23081"},"free_bikes":0,"id":"fd43872148ddee8056973044dfc8dbf8","latitude":60.322995,"longitude":24.840774,"name":"Keimolantie","timestamp":"2023-10-18T20:35:04.246000Z"},{"empty_slots":11,"extra":{"uid":"66e94a76-5790-45c4-aa25-83f8af8d0c5f"},"free_bikes":9,"id":"9543e65dd7c6b9c127de06d8acdc7175","latitude":60.318471,"longitude":24.831207,"name":"Lincolninaukio","timestamp":"2023-10-18T20:35:04.250000Z"},{"empty_slots":9,"extra":{"uid":"701"},"free_bikes":1,"id":"ada318010166a5bcaa81431d69b17f11","latitude":60.206142,"longitude":24.840699,"name":"Gallen-Kallelan tie","timestamp":"2023-10-18T20:35:02.985000Z"},{"empty_slots":5,"extra":{"uid":"703"},"free_bikes":5,"id":"94b378571fdb0ce0fde7fee339bb8f57","latitude":60.203852,"longitude":24.8231,"name":"Elfvik","timestamp":"2023-10-18T20:35:02.988000Z"},{"empty_slots":16,"extra":{"uid":"705"},"free_bikes":2,"id":"6a7eb6bf55515e68f6a5748aaa7c9eb4","latitude":60.203892,"longitude":24.80493,"name":"Laajalahden keskus","timestamp":"2023-10-18T20:35:03.025000Z"},{"empty_slots":16,"extra":{"uid":"707"},"free_bikes":8,"id":"0fa91a4203d8d9024b08060d1a32849d","latitude":60.210735,"longitude":24.824954,"name":"Majurinkulma","timestamp":"2023-10-18T20:35:03.041000Z"},{"empty_slots":2,"extra":{"uid":"709"},"free_bikes":25,"id":"24756db9506dc268800b4100ff678804","latitude":60.212508,"longitude":24.819549,"name":"Yhdyskunnankuja","timestamp":"2023-10-18T20:35:03.056000Z"},{"empty_slots":1,"extra":{"uid":"710"},"free_bikes":53,"id":"6b2870d4fec9bafed363f8e54a21ce2f","latitude":60.215112,"longitude":24.826953,"name":"K\u00f6ssi Koskisen aukio","timestamp":"2023-10-18T20:35:03.122000Z"},{"empty_slots":11,"extra":{"uid":"713"},"free_bikes":29,"id":"12a1c942b8d6f311c0251650260e7407","latitude":60.216067,"longitude":24.819396,"name":"Upseerinkatu","timestamp":"2023-10-18T20:35:03.133000Z"},{"empty_slots":0,"extra":{"uid":"715"},"free_bikes":41,"id":"37c5312fc86cf5a6286be9eacc3ac8c7","latitude":60.216222,"longitude":24.821932,"name":"Komentajankatu","timestamp":"2023-10-18T20:35:03.152000Z"},{"empty_slots":23,"extra":{"uid":"719"},"free_bikes":10,"id":"d471bd774a348b4f7c976b5cc05e498b","latitude":60.213443,"longitude":24.811572,"name":"S\u00e4teri","timestamp":"2023-10-18T20:35:03.158000Z"},{"empty_slots":12,"extra":{"uid":"721"},"free_bikes":4,"id":"36b3770182c483d917ef70a8c11ab4a8","latitude":60.214193,"longitude":24.805613,"name":"S\u00e4terinrinne","timestamp":"2023-10-18T20:35:03.165000Z"},{"empty_slots":16,"extra":{"uid":"601"},"free_bikes":2,"id":"bd8b5ebf8c56970a9d8b5ea125400a1e","latitude":60.147974,"longitude":24.754344,"name":"Nokkala","timestamp":"2023-10-18T20:35:03.170000Z"},{"empty_slots":9,"extra":{"uid":"723"},"free_bikes":5,"id":"c5df7ee84d5bd5441c897bf9dc7485df","latitude":60.214666,"longitude":24.800486,"name":"S\u00e4terinniitty","timestamp":"2023-10-18T20:35:03.171000Z"},{"empty_slots":15,"extra":{"uid":"603"},"free_bikes":8,"id":"0e83d953135506f47d48a184a406cb50","latitude":60.151041,"longitude":24.754196,"name":"Matinlahdenranta","timestamp":"2023-10-18T20:35:03.173000Z"},{"empty_slots":20,"extra":{"uid":"725"},"free_bikes":0,"id":"bf4019de1340aefe234bd19c4bc2f038","latitude":60.217261,"longitude":24.806279,"name":"Rummunly\u00f6j\u00e4nkatu","timestamp":"2023-10-18T20:35:03.178000Z"},{"empty_slots":26,"extra":{"uid":"727"},"free_bikes":6,"id":"3e7f9869aff046550e84f369d9dfae05","latitude":60.217311,"longitude":24.812419,"name":"Ratsutori","timestamp":"2023-10-18T20:35:03.179000Z"},{"empty_slots":7,"extra":{"uid":"607"},"free_bikes":8,"id":"41d417802c21ef5d88e5b264e7f83717","latitude":60.14754,"longitude":24.741736,"name":"Nuottaniementie","timestamp":"2023-10-18T20:35:03.183000Z"},{"empty_slots":14,"extra":{"uid":"729"},"free_bikes":10,"id":"53e60d960d8bea5ec35a0f3b35f2ce41","latitude":60.21881,"longitude":24.813945,"name":"Lepp\u00e4vaaranaukio","timestamp":"2023-10-18T20:35:03.191000Z"},{"empty_slots":8,"extra":{"uid":"609"},"free_bikes":2,"id":"00b4a9e6d6ea1ef4ae4abacf190a3e8f","latitude":60.152343,"longitude":24.741234,"name":"Sepetlahdentie","timestamp":"2023-10-18T20:35:03.193000Z"},{"empty_slots":16,"extra":{"uid":"731"},"free_bikes":6,"id":"d049b242921378033d10f93ad2f67ca5","latitude":60.220254,"longitude":24.813437,"name":"Lepp\u00e4vaarank\u00e4yt\u00e4v\u00e4","timestamp":"2023-10-18T20:35:03.196000Z"},{"empty_slots":11,"extra":{"uid":"611"},"free_bikes":19,"id":"67c4d2c059b8e966e1d11cae19bba65d","latitude":60.156258,"longitude":24.752489,"name":"Matinkartanontie","timestamp":"2023-10-18T20:35:03.198000Z"},{"empty_slots":19,"extra":{"uid":"733"},"free_bikes":5,"id":"171e00b94d6fdbb09c828f5c1cf7d693","latitude":60.221019,"longitude":24.813109,"name":"L\u00e4kkitori","timestamp":"2023-10-18T20:35:03.201000Z"},{"empty_slots":10,"extra":{"uid":"613"},"free_bikes":4,"id":"ab60916dc795426038112492c612687c","latitude":60.155689,"longitude":24.744978,"name":"Matinkyl\u00e4ntie","timestamp":"2023-10-18T20:35:03.207000Z"},{"empty_slots":19,"extra":{"uid":"735"},"free_bikes":1,"id":"2a00d457849bc54e417aef7765185452","latitude":60.221938,"longitude":24.817939,"name":"Mestarinkatu","timestamp":"2023-10-18T20:35:03.209000Z"},{"empty_slots":18,"extra":{"uid":"615"},"free_bikes":1,"id":"42ed6efdd64865cfea337d45ee8c5e22","latitude":60.156755,"longitude":24.737664,"name":"Tiistil\u00e4ntie","timestamp":"2023-10-18T20:35:03.210000Z"},{"empty_slots":12,"extra":{"uid":"737"},"free_bikes":3,"id":"25af73a387affb67c5ce1b00f71359ac","latitude":60.223768,"longitude":24.812246,"name":"Muurarinkuja","timestamp":"2023-10-18T20:35:03.212000Z"},{"empty_slots":11,"extra":{"uid":"617"},"free_bikes":5,"id":"000c307acc41df3a1343bdf8a5d8caa7","latitude":60.153737,"longitude":24.729112,"name":"Tiistinkallio","timestamp":"2023-10-18T20:35:03.224000Z"},{"empty_slots":12,"extra":{"uid":"739"},"free_bikes":5,"id":"56fa5e088a96400f04a8958c60e81370","latitude":60.223827,"longitude":24.826396,"name":"Postipuun koulu","timestamp":"2023-10-18T20:35:03.226000Z"},{"empty_slots":7,"extra":{"uid":"619"},"free_bikes":12,"id":"9d46503bf3d93416bbcb0fff2bec78b8","latitude":60.160645,"longitude":24.724835,"name":"Etuniementie","timestamp":"2023-10-18T20:35:03.228000Z"},{"empty_slots":20,"extra":{"uid":"741"},"free_bikes":0,"id":"781415a9f05cfe05793a185fdba1d89a","latitude":60.222154,"longitude":24.804898,"name":"Gransinm\u00e4ki","timestamp":"2023-10-18T20:35:03.229000Z"},{"empty_slots":5,"extra":{"uid":"621"},"free_bikes":18,"id":"010ddab4b4156d8b5afe719be16542e9","latitude":60.161138,"longitude":24.756272,"name":"Hauenkalliontie","timestamp":"2023-10-18T20:35:03.238000Z"},{"empty_slots":7,"extra":{"uid":"501"},"free_bikes":7,"id":"5e7349b94208483034e2fe8d9f04b172","latitude":60.16582,"longitude":24.840319,"name":"Hanasaari","timestamp":"2023-10-18T20:35:03.239000Z"},{"empty_slots":15,"extra":{"uid":"623"},"free_bikes":1,"id":"c42d0cdde0739b462b23af007630483c","latitude":60.161588,"longitude":24.74663,"name":"Nelikkotie","timestamp":"2023-10-18T20:35:03.250000Z"},{"empty_slots":18,"extra":{"uid":"503"},"free_bikes":14,"id":"40c9eae9b7fd8b59521ed50d034da784","latitude":60.1690523,"longitude":24.8307727,"name":"Keilalahti","timestamp":"2023-10-18T20:35:03.253000Z"},{"empty_slots":5,"extra":{"uid":"745"},"free_bikes":37,"id":"4324e5f95fb0b900c354aa5ed24212f4","latitude":60.224963,"longitude":24.801345,"name":"Lepp\u00e4vaaran urheilupuisto","timestamp":"2023-10-18T20:35:03.254000Z"},{"empty_slots":22,"extra":{"uid":"625"},"free_bikes":27,"id":"77a5e28c58a27ec6ba63540546b0233c","latitude":60.159756,"longitude":24.740267,"name":"Suomenlahdentie","timestamp":"2023-10-18T20:35:03.262000Z"},{"empty_slots":10,"extra":{"uid":"505"},"free_bikes":8,"id":"1a6fdcb93a8be1dafa03bb5b11eb5f5c","latitude":60.168266,"longitude":24.805758,"name":"Westendinasema","timestamp":"2023-10-18T20:35:03.264000Z"},{"empty_slots":7,"extra":{"uid":"747"},"free_bikes":14,"id":"fcbecc5241f031e7036090b7e0511387","latitude":60.226379,"longitude":24.804735,"name":"Lepp\u00e4vaaran uimahalli","timestamp":"2023-10-18T20:35:03.273000Z"},{"empty_slots":40,"extra":{"uid":"627"},"free_bikes":0,"id":"d64b9cd517aacae8a7c911af6a4e3237","latitude":60.162403,"longitude":24.738416,"name":"Piispansilta","timestamp":"2023-10-18T20:35:03.275000Z"},{"empty_slots":8,"extra":{"uid":"507"},"free_bikes":10,"id":"fda8c7db6b48aed63f7b3440ab5e4f99","latitude":60.168143,"longitude":24.796136,"name":"Golfpolku","timestamp":"2023-10-18T20:35:03.277000Z"},{"empty_slots":23,"extra":{"uid":"749"},"free_bikes":1,"id":"fff35c4eaa39df0e4dd198d9c4b344bd","latitude":60.228463,"longitude":24.813871,"name":"Vallikatu","timestamp":"2023-10-18T20:35:03.278000Z"},{"empty_slots":9,"extra":{"uid":"629"},"free_bikes":8,"id":"09bc7c563fd2de9be3a60f448057e661","latitude":60.165603,"longitude":24.732688,"name":"Piispanportti","timestamp":"2023-10-18T20:35:03.286000Z"},{"empty_slots":9,"extra":{"uid":"509"},"free_bikes":24,"id":"f21b7917e7033a7c5e6bcf7a0b6f2d41","latitude":60.171551,"longitude":24.802938,"name":"Revontulentie","timestamp":"2023-10-18T20:35:03.289000Z"},{"empty_slots":18,"extra":{"uid":"751"},"free_bikes":2,"id":"6f1ccf6a0f611d6ad201bc608fe4db5b","latitude":60.227827,"longitude":24.819614,"name":"Vallipolku","timestamp":"2023-10-18T20:35:03.291000Z"},{"empty_slots":11,"extra":{"uid":"631"},"free_bikes":3,"id":"a880984446873fa3685baad1dfb174b6","latitude":60.162842,"longitude":24.721367,"name":"Friisil\u00e4naukio","timestamp":"2023-10-18T20:35:03.299000Z"},{"empty_slots":14,"extra":{"uid":"511"},"free_bikes":5,"id":"18ac2d19a54bdacd970ccf6996dd154e","latitude":60.173424,"longitude":24.810688,"name":"Sateentie","timestamp":"2023-10-18T20:35:03.301000Z"},{"empty_slots":3,"extra":{"uid":"753"},"free_bikes":25,"id":"c85bc4ed8648f3ec591a42a903080b58","latitude":60.234401,"longitude":24.813954,"name":"Linnuntie","timestamp":"2023-10-18T20:35:03.313000Z"},{"empty_slots":13,"extra":{"uid":"633"},"free_bikes":3,"id":"10b34f7afa7ad26d9763ffbc149e985a","latitude":60.168971,"longitude":24.724908,"name":"Avaruuskatu","timestamp":"2023-10-18T20:35:03.315000Z"},{"empty_slots":16,"extra":{"uid":"513"},"free_bikes":9,"id":"462525ce3d71cd168f9a404ff7620caf","latitude":60.173567,"longitude":24.79139,"name":"Hakalehto","timestamp":"2023-10-18T20:35:03.316000Z"},{"empty_slots":9,"extra":{"uid":"755"},"free_bikes":8,"id":"2f8fc9aedd7f78f1276caf8e20c80c1d","latitude":60.230453,"longitude":24.824561,"name":"Kutsuntatie","timestamp":"2023-10-18T20:35:03.316000Z"},{"empty_slots":23,"extra":{"uid":"635"},"free_bikes":1,"id":"1d8b2f8bd7fbfe89c618bf2a7a5f8b05","latitude":60.172673,"longitude":24.726025,"name":"Kuunkatu","timestamp":"2023-10-18T20:35:03.317000Z"},{"empty_slots":10,"extra":{"uid":"515"},"free_bikes":6,"id":"d9a1dce1679a5a5fbc153cdc42f8d843","latitude":60.175769,"longitude":24.792559,"name":"Oravannahkatori","timestamp":"2023-10-18T20:35:03.319000Z"},{"empty_slots":3,"extra":{"uid":"757"},"free_bikes":11,"id":"5c6f7f8867ef3f21fb1f8bd15eb0b645","latitude":60.235089,"longitude":24.831397,"name":"Painiitty","timestamp":"2023-10-18T20:35:03.320000Z"},{"empty_slots":9,"extra":{"uid":"637"},"free_bikes":3,"id":"1d8abf1a2198e76d4b2bdae269689531","latitude":60.174524,"longitude":24.729314,"name":"Ruomelantie","timestamp":"2023-10-18T20:35:03.325000Z"},{"empty_slots":18,"extra":{"uid":"517"},"free_bikes":7,"id":"9b6f4850d181c3d218fd8f02a7a250e6","latitude":60.175358,"longitude":24.802049,"name":"L\u00e4nsituuli","timestamp":"2023-10-18T20:35:03.326000Z"},{"empty_slots":15,"extra":{"uid":"518"},"free_bikes":5,"id":"af1ee20719d1456720ca65fcb6a9675a","latitude":60.17219,"longitude":24.806849,"name":"Tuulim\u00e4ki","timestamp":"2023-10-18T20:35:03.327000Z"},{"empty_slots":16,"extra":{"uid":"639"},"free_bikes":2,"id":"2d0b2978d8a5e31f376e8afc24c79a7a","latitude":60.174914,"longitude":24.738122,"name":"It\u00e4portti","timestamp":"2023-10-18T20:35:03.328000Z"},{"empty_slots":24,"extra":{"uid":"519"},"free_bikes":3,"id":"0960323c49bf1cf9dbc7a699a858ffe7","latitude":60.176168,"longitude":24.805825,"name":"Tapionaukio","timestamp":"2023-10-18T20:35:03.329000Z"},{"empty_slots":31,"extra":{"uid":"761"},"free_bikes":2,"id":"8fab2c9e84b995ccf21f1dd3a2674e76","latitude":60.220467,"longitude":24.83939,"name":"M\u00e4kkyl\u00e4n asema","timestamp":"2023-10-18T20:35:03.337000Z"},{"empty_slots":14,"extra":{"uid":"641"},"free_bikes":3,"id":"8450c43cac731999d69fa16e46c2fa80","latitude":60.167216,"longitude":24.735969,"name":"Komeetankatu","timestamp":"2023-10-18T20:35:03.338000Z"},{"empty_slots":14,"extra":{"uid":"400"},"free_bikes":2,"id":"6c93eec7973e029aa18612a7d957d14d","latitude":60.18450834,"longitude":24.8567966,"name":"Kuusisaari","timestamp":"2023-10-18T20:35:03.339000Z"},{"empty_slots":30,"extra":{"uid":"521"},"free_bikes":0,"id":"e02233eb497bb93e13bc029eeb6fb547","latitude":60.177588,"longitude":24.803942,"name":"Kulttuuriaukio","timestamp":"2023-10-18T20:35:03.345000Z"},{"empty_slots":22,"extra":{"uid":"763"},"free_bikes":2,"id":"106a509bd7e6195cb9bb69ce7ea18bae","latitude":60.220551,"longitude":24.833536,"name":"Kalkkipellonm\u00e4ki","timestamp":"2023-10-18T20:35:03.346000Z"},{"empty_slots":3,"extra":{"uid":"401"},"free_bikes":37,"id":"3f8d628eda840cd284c2d161be45e16f","latitude":60.16338631,"longitude":24.85516427,"name":"Koivusaari (M)","timestamp":"2023-10-18T20:35:03.347000Z"},{"empty_slots":19,"extra":{"uid":"643"},"free_bikes":1,"id":"c35d273a02b281cbb502b5ea33c4aa13","latitude":60.171548,"longitude":24.731472,"name":"Auringonkatu","timestamp":"2023-10-18T20:35:03.361000Z"},{"empty_slots":4,"extra":{"uid":"402"},"free_bikes":15,"id":"d29fb234f9ff5e85d1ae5ce3643e6831","latitude":60.15490426,"longitude":24.91014211,"name":"Bermudankuja","timestamp":"2023-10-18T20:35:03.363000Z"},{"empty_slots":20,"extra":{"uid":"523"},"free_bikes":0,"id":"e1a82f94281cffb1837ef53bb767af25","latitude":60.17875,"longitude":24.797984,"name":"Ahertajantie","timestamp":"2023-10-18T20:35:03.363000Z"},{"empty_slots":4,"extra":{"uid":"403"},"free_bikes":51,"id":"c1c4797b80fe9f6f57379ea9e497add4","latitude":60.18955618,"longitude":24.97754808,"name":"Verkkosaari","timestamp":"2023-10-18T20:35:03.364000Z"},{"empty_slots":13,"extra":{"uid":"645"},"free_bikes":4,"id":"c34fcf1234390f12bc04bca689dbf4b5","latitude":60.168441,"longitude":24.743532,"name":"Piispankallio","timestamp":"2023-10-18T20:35:03.365000Z"},{"empty_slots":4,"extra":{"uid":"404"},"free_bikes":23,"id":"8e4ac8e74e2089241f3f3b0506698d35","latitude":60.18293082,"longitude":24.97607582,"name":"Sompasaari","timestamp":"2023-10-18T20:35:03.368000Z"},{"empty_slots":8,"extra":{"uid":"525"},"free_bikes":3,"id":"538b5553eecc68cb7cf2ab6020e74d9d","latitude":60.178702,"longitude":24.810974,"name":"M\u00e4ntyviita","timestamp":"2023-10-18T20:35:03.370000Z"},{"empty_slots":5,"extra":{"uid":"767"},"free_bikes":6,"id":"666a340651709f5535b797149d35d403","latitude":60.223377,"longitude":24.820635,"name":"Ruutikatu","timestamp":"2023-10-18T20:35:03.371000Z"},{"empty_slots":1,"extra":{"uid":"405"},"free_bikes":22,"id":"fda8698261c14f6659add1983a78d708","latitude":60.16440749,"longitude":25.06166787,"name":"Jollas","timestamp":"2023-10-18T20:35:03.371000Z"},{"empty_slots":8,"extra":{"uid":"647"},"free_bikes":4,"id":"8eb4e613d675554176133a54a56e8e81","latitude":60.172814,"longitude":24.745666,"name":"Lystim\u00e4ki","timestamp":"2023-10-18T20:35:03.376000Z"},{"empty_slots":7,"extra":{"uid":"768"},"free_bikes":4,"id":"d0b443d1503aa308f2c8a47a16256f35","latitude":60.204669,"longitude":24.809499,"name":"Kurkijoentie","timestamp":"2023-10-18T20:35:03.377000Z"},{"empty_slots":11,"extra":{"uid":"527"},"free_bikes":9,"id":"fbaddeea31eca13b248e3fca952db721","latitude":60.178655,"longitude":24.817423,"name":"Otsolahti","timestamp":"2023-10-18T20:35:03.378000Z"},{"empty_slots":10,"extra":{"uid":"649"},"free_bikes":5,"id":"082ad4fb04c6c00dc29176339269c649","latitude":60.17471,"longitude":24.752442,"name":"Lystim\u00e4ensilta","timestamp":"2023-10-18T20:35:03.379000Z"},{"empty_slots":33,"extra":{"uid":"529"},"free_bikes":9,"id":"7e5eb61213481bd337acd2c00bd4fa1a","latitude":60.175233,"longitude":24.82895,"name":"Keilaniemi (M)","timestamp":"2023-10-18T20:35:03.380000Z"},{"empty_slots":12,"extra":{"uid":"651"},"free_bikes":14,"id":"0a23727739a80a0c160254db209a4a1d","latitude":60.184596,"longitude":24.744131,"name":"Suurpellonaukio","timestamp":"2023-10-18T20:35:03.386000Z"},{"empty_slots":23,"extra":{"uid":"531"},"free_bikes":2,"id":"270c1b7da96ea41fbc355c4351df92cb","latitude":60.178762,"longitude":24.835132,"name":"Keilaranta","timestamp":"2023-10-18T20:35:03.389000Z"},{"empty_slots":16,"extra":{"uid":"532"},"free_bikes":0,"id":"3e142a18e9f2667677445f93330d92d9","latitude":60.180027,"longitude":24.831804,"name":"Betonimies","timestamp":"2023-10-18T20:35:03.390000Z"},{"empty_slots":5,"extra":{"uid":"653"},"free_bikes":15,"id":"aae5e194d1a7141fbf68b5deca333812","latitude":60.187086,"longitude":24.742936,"name":"Lukutori","timestamp":"2023-10-18T20:35:03.393000Z"},{"empty_slots":18,"extra":{"uid":"533"},"free_bikes":0,"id":"574e06b0e59740f68cfe0d58e67685a6","latitude":60.180806,"longitude":24.824747,"name":"Tekniikantie","timestamp":"2023-10-18T20:35:03.399000Z"},{"empty_slots":14,"extra":{"uid":"537"},"free_bikes":8,"id":"b5fcff6d538ac7545e134111bd888e97","latitude":60.185096,"longitude":24.81422,"name":"Innopoli","timestamp":"2023-10-18T20:35:03.411000Z"},{"empty_slots":8,"extra":{"uid":"538"},"free_bikes":7,"id":"d7f55cb1908fbc5d90e6e5ad21c4cdd1","latitude":60.18363,"longitude":24.817403,"name":"Hagalundinpuisto","timestamp":"2023-10-18T20:35:03.413000Z"},{"empty_slots":20,"extra":{"uid":"539"},"free_bikes":0,"id":"1c263d5d06060c5b24fe5065ef39cef1","latitude":60.184987,"longitude":24.820099,"name":"Aalto-yliopisto (M), Tietotie","timestamp":"2023-10-18T20:35:03.427000Z"},{"empty_slots":40,"extra":{"uid":"541"},"free_bikes":2,"id":"ea1aaf81b805eb14963b46e917309e6d","latitude":60.184312,"longitude":24.826671,"name":"Aalto-yliopisto (M), Korkeakouluaukio","timestamp":"2023-10-18T20:35:03.438000Z"},{"empty_slots":24,"extra":{"uid":"301"},"free_bikes":8,"id":"bb8ad005f97703af868842623a785a7f","latitude":60.2027734,"longitude":25.15934635,"name":"Aurinkotuulenkatu","timestamp":"2023-10-18T20:35:03.439000Z"},{"empty_slots":10,"extra":{"uid":"543"},"free_bikes":11,"id":"fc9fe59af9db86e2f12552b8960754af","latitude":60.18483,"longitude":24.837133,"name":"Otaranta","timestamp":"2023-10-18T20:35:03.441000Z"},{"empty_slots":12,"extra":{"uid":"302"},"free_bikes":4,"id":"17b52769c037a3b08cbb1f6a1457d0d7","latitude":60.20544673,"longitude":25.15840938,"name":"Sumukuja","timestamp":"2023-10-18T20:35:03.442000Z"},{"empty_slots":13,"extra":{"uid":"303"},"free_bikes":5,"id":"402d3054460c337783c3393ebbbcae88","latitude":60.2046813,"longitude":25.15154626,"name":"Leikosaarentie","timestamp":"2023-10-18T20:35:03.445000Z"},{"empty_slots":11,"extra":{"uid":"545"},"free_bikes":4,"id":"5be5cb44f750be54a4ab5c9419cb99e1","latitude":60.188499,"longitude":24.829985,"name":"S\u00e4hk\u00f6mies","timestamp":"2023-10-18T20:35:03.446000Z"},{"empty_slots":4,"extra":{"uid":"304"},"free_bikes":28,"id":"62dfe0b25fa6c7f330a0b2f821c6cf5e","latitude":60.20113608,"longitude":25.15011353,"name":"Aurinkolahdenaukio","timestamp":"2023-10-18T20:35:03.448000Z"},{"empty_slots":0,"extra":{"uid":"305"},"free_bikes":34,"id":"1e9e4f715195bcb4aee5176d4bfce5d3","latitude":60.2021242,"longitude":25.14304029,"name":"Kalkkihiekantie","timestamp":"2023-10-18T20:35:03.450000Z"},{"empty_slots":17,"extra":{"uid":"547"},"free_bikes":16,"id":"d7e5df0005527299416451ff04942a4a","latitude":60.187712,"longitude":24.83556,"name":"J\u00e4mer\u00e4ntaival","timestamp":"2023-10-18T20:35:03.452000Z"},{"empty_slots":20,"extra":{"uid":"306"},"free_bikes":0,"id":"5f2bbcb7aef74280abe8bd0d4213dc48","latitude":60.2063719,"longitude":25.14550436,"name":"Kauppakeskus Columbus","timestamp":"2023-10-18T20:35:03.457000Z"},{"empty_slots":12,"extra":{"uid":"307"},"free_bikes":7,"id":"08b257deadc08b674756149c06c9c5de","latitude":60.20661604,"longitude":25.14104587,"name":"Ulappasilta","timestamp":"2023-10-18T20:35:03.458000Z"},{"empty_slots":12,"extra":{"uid":"549"},"free_bikes":5,"id":"a701f3a72d997fcc9a00aac48ce4fd7a","latitude":60.187523,"longitude":24.811419,"name":"Maarinranta","timestamp":"2023-10-18T20:35:03.458000Z"},{"empty_slots":17,"extra":{"uid":"308"},"free_bikes":0,"id":"4ae1fe53fe68d45f7e344e4b073844cb","latitude":60.20797536,"longitude":25.14385259,"name":"Mosaiikkitori","timestamp":"2023-10-18T20:35:03.461000Z"},{"empty_slots":13,"extra":{"uid":"309"},"free_bikes":8,"id":"64383ef73a3f835efc61cebb6ea4cf7e","latitude":60.20440477,"longitude":25.13599933,"name":"Kaivonkatsojanpuisto","timestamp":"2023-10-18T20:35:03.465000Z"},{"empty_slots":19,"extra":{"uid":"551"},"free_bikes":1,"id":"5e043ee52a1cad07c0bf36c18d4633b0","latitude":60.189143,"longitude":24.807083,"name":"Tiet\u00e4j\u00e4","timestamp":"2023-10-18T20:35:03.467000Z"},{"empty_slots":15,"extra":{"uid":"310"},"free_bikes":5,"id":"addfbe8fbbe3160af7c23362c75edaf9","latitude":60.20238693,"longitude":25.12790982,"name":"Halkaisijantie","timestamp":"2023-10-18T20:35:03.468000Z"},{"empty_slots":17,"extra":{"uid":"311"},"free_bikes":2,"id":"eb278f456b0e04ec0567559383840de6","latitude":60.19956365,"longitude":25.11990608,"name":"Ramsinniementie","timestamp":"2023-10-18T20:35:03.471000Z"},{"empty_slots":9,"extra":{"uid":"553"},"free_bikes":9,"id":"f656856d6ac96da3cd79c94b98192591","latitude":60.186731,"longitude":24.806152,"name":"Mets\u00e4nneidonpolku","timestamp":"2023-10-18T20:35:03.474000Z"},{"empty_slots":12,"extra":{"uid":"312"},"free_bikes":2,"id":"deb80c435688d3e28c88912a7fafd0d5","latitude":60.20415423,"longitude":25.11942241,"name":"Meri-Rastilan tori","timestamp":"2023-10-18T20:35:03.482000Z"},{"empty_slots":10,"extra":{"uid":"313"},"free_bikes":16,"id":"45f01c1e32a97b987409c021b6ae522a","latitude":60.20553547,"longitude":25.12014086,"name":"Rastila (M)","timestamp":"2023-10-18T20:35:03.483000Z"},{"empty_slots":0,"extra":{"uid":"555"},"free_bikes":21,"id":"0be8d4397223ea8948045cf9c6e9c143","latitude":60.184765,"longitude":24.804022,"name":"Kalevalantie","timestamp":"2023-10-18T20:35:03.483000Z"},{"empty_slots":12,"extra":{"uid":"314"},"free_bikes":7,"id":"63d93096e7fabf302242f359ffbfa932","latitude":60.20955807,"longitude":25.1365036,"name":"Lokitie","timestamp":"2023-10-18T20:35:03.484000Z"},{"empty_slots":15,"extra":{"uid":"315"},"free_bikes":10,"id":"cad15329cb32155c85d6831362bdedaa","latitude":60.21229761,"longitude":25.15346457,"name":"Vuosaaren liikuntapuisto","timestamp":"2023-10-18T20:35:03.486000Z"},{"empty_slots":8,"extra":{"uid":"557"},"free_bikes":10,"id":"b152bd6965c686941b53c5228dab2ffa","latitude":60.18715,"longitude":24.796959,"name":"Louhentori","timestamp":"2023-10-18T20:35:03.492000Z"},{"empty_slots":5,"extra":{"uid":"316"},"free_bikes":33,"id":"b958e70827ca558f46b96936833c1d58","latitude":60.21400149,"longitude":25.14675006,"name":"Punakiventie","timestamp":"2023-10-18T20:35:03.493000Z"},{"empty_slots":7,"extra":{"uid":"317"},"free_bikes":14,"id":"cf1c14a2f07bc5dcc61744d39d62a24d","latitude":60.21877663,"longitude":25.14678718,"name":"Haapasaarentie","timestamp":"2023-10-18T20:35:03.494000Z"},{"empty_slots":8,"extra":{"uid":"559"},"free_bikes":4,"id":"59e87c496edeed45e0e8acb6595215cb","latitude":60.18288,"longitude":24.794014,"name":"Pohjankulma","timestamp":"2023-10-18T20:35:03.495000Z"},{"empty_slots":3,"extra":{"uid":"318"},"free_bikes":13,"id":"52c54bd2c1c5b1ee051f1c41dc5f308b","latitude":60.2213209,"longitude":25.14109536,"name":"Vuosaaren puistopolku","timestamp":"2023-10-18T20:35:03.497000Z"},{"empty_slots":14,"extra":{"uid":"319"},"free_bikes":4,"id":"1178d252e3f4eb827406cd5c4fb4c0d1","latitude":60.21964832,"longitude":25.13382869,"name":"Purjetie","timestamp":"2023-10-18T20:35:03.500000Z"},{"empty_slots":17,"extra":{"uid":"561"},"free_bikes":7,"id":"2dd85572489cc4d9e13675b5a5ebc6f0","latitude":60.182976,"longitude":24.78576,"name":"Koivu-Mankkaa","timestamp":"2023-10-18T20:35:03.501000Z"},{"empty_slots":12,"extra":{"uid":"320"},"free_bikes":5,"id":"b99497e26cc2a06bda3b32ef03ac0841","latitude":60.21398072,"longitude":25.13423251,"name":"Koukkusaarentie","timestamp":"2023-10-18T20:35:03.505000Z"},{"empty_slots":11,"extra":{"uid":"200"},"free_bikes":19,"id":"4894798de3b5ea1223a011df5df4bdd6","latitude":60.150395628620245,"longitude":24.915862667368163,"name":"L\u00e4nsiterminaali","timestamp":"2023-10-18T20:35:03.509000Z"},{"empty_slots":1,"extra":{"uid":"321"},"free_bikes":19,"id":"5439be407c144d7cbbe0155da2773a06","latitude":60.22088947,"longitude":25.11091442,"name":"Vartioharjuntie","timestamp":"2023-10-18T20:35:03.510000Z"},{"empty_slots":6,"extra":{"uid":"563"},"free_bikes":28,"id":"4b1cbb152d7310ee4ce7a0dbe7a5f885","latitude":60.188706,"longitude":24.780478,"name":"Mankkaanlaaksontie","timestamp":"2023-10-18T20:35:03.513000Z"},{"empty_slots":3,"extra":{"uid":"201"},"free_bikes":16,"id":"651f832f7a264f1c7d7984c4a25ebb49","latitude":60.15693191359567,"longitude":24.912200440174857,"name":"L\u00e4nsisatamankuja","timestamp":"2023-10-18T20:35:03.514000Z"},{"empty_slots":6,"extra":{"uid":"322"},"free_bikes":23,"id":"6090fa0e52cdd63a27953873ddebcc42","latitude":60.23128135,"longitude":25.12759698,"name":"Rukatunturintie","timestamp":"2023-10-18T20:35:03.521000Z"},{"empty_slots":10,"extra":{"uid":"202"},"free_bikes":8,"id":"bd3cb55e360de804a088991e3a5281f3","latitude":60.181104,"longitude":24.962129,"name":"Merihaka","timestamp":"2023-10-18T20:35:03.522000Z"},{"empty_slots":16,"extra":{"uid":"323"},"free_bikes":0,"id":"78a36224829fb50ea126b67992ca6a06","latitude":60.23674091,"longitude":25.11830002,"name":"Sallatunturintie","timestamp":"2023-10-18T20:35:03.523000Z"},{"empty_slots":5,"extra":{"uid":"565"},"free_bikes":17,"id":"5a2cc6ba362d39831846c9557877636d","latitude":60.194599,"longitude":24.769021,"name":"Mankkaanaukio","timestamp":"2023-10-18T20:35:03.524000Z"},{"empty_slots":40,"extra":{"uid":"203"},"free_bikes":0,"id":"dbaaea5397c474602d05cefd7a55648a","latitude":60.199235425819,"longitude":24.937826370875783,"name":"Opastinsilta","timestamp":"2023-10-18T20:35:03.532000Z"},{"empty_slots":7,"extra":{"uid":"324"},"free_bikes":19,"id":"9dbac9c362dbad6dd4b86c6a054c864c","latitude":60.23296145,"longitude":25.11106023,"name":"Sinkil\u00e4tie","timestamp":"2023-10-18T20:35:03.533000Z"},{"empty_slots":24,"extra":{"uid":"204"},"free_bikes":0,"id":"aa03e05ea408eb646840c2f0389d0356","latitude":60.205577,"longitude":24.962152,"name":"A.I. Virtasen aukio","timestamp":"2023-10-18T20:35:03.574000Z"},{"empty_slots":8,"extra":{"uid":"325"},"free_bikes":15,"id":"778b4ad6bbe91f91a3d44223aa637b75","latitude":60.23853535,"longitude":25.10987474,"name":"Mellunm\u00e4ki (M)","timestamp":"2023-10-18T20:35:03.575000Z"},{"empty_slots":15,"extra":{"uid":"205"},"free_bikes":1,"id":"7af55530f4d8633e6a38df6331fb8438","latitude":60.206626437691405,"longitude":24.922219888430064,"name":"Ilmalan asema","timestamp":"2023-10-18T20:35:03.577000Z"},{"empty_slots":14,"extra":{"uid":"326"},"free_bikes":2,"id":"a7deb94615716e439e123de8e34a2a5c","latitude":60.23884425,"longitude":25.10072322,"name":"Tuukkalantie","timestamp":"2023-10-18T20:35:03.582000Z"},{"empty_slots":10,"extra":{"uid":"206"},"free_bikes":5,"id":"8efd65aad53908e56de0c0fef673989f","latitude":60.20767995961701,"longitude":24.898667890628126,"name":"Ruskeasuon varikko","timestamp":"2023-10-18T20:35:03.585000Z"},{"empty_slots":11,"extra":{"uid":"327"},"free_bikes":5,"id":"2d61e2281fd2d6a3b69d7ed20cbc2b79","latitude":60.229825,"longitude":25.09006415,"name":"Humikkalankuja","timestamp":"2023-10-18T20:35:03.587000Z"},{"empty_slots":12,"extra":{"uid":"207"},"free_bikes":5,"id":"f189fe79a7aba5f00b85e0bea6010f0c","latitude":60.211075296273414,"longitude":24.881660254358646,"name":"Vanha Viertotie","timestamp":"2023-10-18T20:35:03.593000Z"},{"empty_slots":6,"extra":{"uid":"328"},"free_bikes":8,"id":"81942ce19e35e3012d5e689476561766","latitude":60.22352658,"longitude":25.08297117,"name":"Lallukankuja","timestamp":"2023-10-18T20:35:03.594000Z"},{"empty_slots":14,"extra":{"uid":"208"},"free_bikes":10,"id":"4ed034d1f8de6fab286cbab6a14b6714","latitude":60.21560492,"longitude":24.87541595,"name":"Valimotie","timestamp":"2023-10-18T20:35:03.598000Z"},{"empty_slots":9,"extra":{"uid":"329"},"free_bikes":7,"id":"aeeffe477791668e062e1d2a3b120a0b","latitude":60.22829039,"longitude":25.07164165,"name":"Kurkim\u00e4ki","timestamp":"2023-10-18T20:35:03.601000Z"},{"empty_slots":7,"extra":{"uid":"209"},"free_bikes":15,"id":"8d928d46088e3317cb25ce65e1cf2b8d","latitude":60.21789962,"longitude":24.87104647,"name":"Takomotie","timestamp":"2023-10-18T20:35:03.604000Z"},{"empty_slots":3,"extra":{"uid":"571"},"free_bikes":38,"id":"763ec506d05400551e15b4bda0d39554","latitude":60.177749,"longitude":24.784654,"name":"Tapiolan urheilupuisto","timestamp":"2023-10-18T20:35:03.617000Z"},{"empty_slots":20,"extra":{"uid":"330"},"free_bikes":0,"id":"78e437c3a2bc0e177a3defc229ee7589","latitude":60.23609535,"longitude":25.08260956,"name":"Kontula (M)","timestamp":"2023-10-18T20:35:03.625000Z"},{"empty_slots":8,"extra":{"uid":"210"},"free_bikes":5,"id":"158492e6720e4146fc6e5f90457fe230","latitude":60.218807358014985,"longitude":24.85566795479381,"name":"Pajam\u00e4ki","timestamp":"2023-10-18T20:35:03.628000Z"},{"empty_slots":12,"extra":{"uid":"331"},"free_bikes":5,"id":"99c870f6e8410f5565ea13afa031babc","latitude":60.24091394,"longitude":25.08552977,"name":"Lettopolku","timestamp":"2023-10-18T20:35:03.633000Z"},{"empty_slots":13,"extra":{"uid":"573"},"free_bikes":26,"id":"45fe20ace17bfc7af7208f24ab30a651","latitude":60.17465,"longitude":24.779428,"name":"Urheilupuisto (M)","timestamp":"2023-10-18T20:35:03.635000Z"},{"empty_slots":9,"extra":{"uid":"211"},"free_bikes":10,"id":"9186da0cc203cdd0982e5e70c6cbd736","latitude":60.21227524113252,"longitude":24.899551136356806,"name":"Haagan tori","timestamp":"2023-10-18T20:35:03.638000Z"},{"empty_slots":10,"extra":{"uid":"332"},"free_bikes":6,"id":"6b34b25763b7126ed19129497b0db2d0","latitude":60.24384164,"longitude":25.07622658,"name":"Kontulankaari","timestamp":"2023-10-18T20:35:03.644000Z"},{"empty_slots":11,"extra":{"uid":"212"},"free_bikes":3,"id":"754271d0fbf62066a6239ee034006bba","latitude":60.21661653745581,"longitude":24.89954369574049,"name":"Tunnelitie","timestamp":"2023-10-18T20:35:03.646000Z"},{"empty_slots":13,"extra":{"uid":"333"},"free_bikes":1,"id":"2b385119ff5f64005811ce4c84289c57","latitude":60.23990429,"longitude":25.07464334,"name":"Kivikonkaari","timestamp":"2023-10-18T20:35:03.649000Z"},{"empty_slots":3,"extra":{"uid":"575"},"free_bikes":24,"id":"2e2f88479404f002020eed4df6b20d32","latitude":60.176107,"longitude":24.769667,"name":"Tontunm\u00e4entie","timestamp":"2023-10-18T20:35:03.653000Z"},{"empty_slots":17,"extra":{"uid":"213"},"free_bikes":1,"id":"37b8b27f4a3247baf52c01b547b7533b","latitude":60.2180455,"longitude":24.89186323,"name":"Huopalahden asema","timestamp":"2023-10-18T20:35:03.654000Z"},{"empty_slots":12,"extra":{"uid":"334"},"free_bikes":3,"id":"c8f6eda92413105c34cf342d5ff65fb7","latitude":60.23913101,"longitude":25.06685726,"name":"Varustuksentie","timestamp":"2023-10-18T20:35:03.660000Z"},{"empty_slots":17,"extra":{"uid":"214"},"free_bikes":4,"id":"6f9426e53cbf641d2392817d4eb380da","latitude":60.22229427877046,"longitude":24.875870912746144,"name":"Valimon asema","timestamp":"2023-10-18T20:35:03.661000Z"},{"empty_slots":11,"extra":{"uid":"335"},"free_bikes":7,"id":"8cf5ea47c4d3ab88449ae65847546299","latitude":60.23319439,"longitude":25.06260837,"name":"Kurkim\u00e4entie","timestamp":"2023-10-18T20:35:03.665000Z"},{"empty_slots":4,"extra":{"uid":"577"},"free_bikes":29,"id":"4efc62be943f2208bd1ea7ffefb0fa94","latitude":60.179769,"longitude":24.759092,"name":"Olarinluoma","timestamp":"2023-10-18T20:35:03.669000Z"},{"empty_slots":10,"extra":{"uid":"215"},"free_bikes":8,"id":"eb6a2ca5c6a186aefd3ff7380d58e0cb","latitude":60.224166,"longitude":24.858046,"name":"Pit\u00e4j\u00e4nm\u00e4en asema","timestamp":"2023-10-18T20:35:03.676000Z"},{"empty_slots":14,"extra":{"uid":"336"},"free_bikes":2,"id":"e01879bc95beef5a53b00e2e05205ce3","latitude":60.23046218,"longitude":25.05491523,"name":"Kivikonlaita","timestamp":"2023-10-18T20:35:03.681000Z"},{"empty_slots":10,"extra":{"uid":"216"},"free_bikes":2,"id":"f98c16efa04b8f6d64f981213cbe97a5","latitude":60.22691,"longitude":24.853805,"name":"J\u00e4nnetie","timestamp":"2023-10-18T20:35:03.684000Z"},{"empty_slots":11,"extra":{"uid":"337"},"free_bikes":5,"id":"e31154fe1f11220708b6f975d3e5e01b","latitude":60.23703582,"longitude":25.05246958,"name":"Kivikon liikuntapuisto","timestamp":"2023-10-18T20:35:03.686000Z"},{"empty_slots":8,"extra":{"uid":"579"},"free_bikes":33,"id":"627f2ad39834b8f96af04070460d379e","latitude":60.171127,"longitude":24.775913,"name":"Niittymaa","timestamp":"2023-10-18T20:35:03.689000Z"},{"empty_slots":9,"extra":{"uid":"217"},"free_bikes":9,"id":"198fdbfdc5ebcd2842b04aaf0ba17c6f","latitude":60.227143233822176,"longitude":24.873227365442304,"name":"Marttila","timestamp":"2023-10-18T20:35:03.697000Z"},{"empty_slots":2,"extra":{"uid":"338"},"free_bikes":15,"id":"9ef309ae18ecf7cae75a99dc6584cc40","latitude":60.25377123,"longitude":25.07437759,"name":"Jakom\u00e4entie","timestamp":"2023-10-18T20:35:03.701000Z"},{"empty_slots":11,"extra":{"uid":"218"},"free_bikes":8,"id":"d569dc8d82d6b767520f5c776aa41b49","latitude":60.230151499496536,"longitude":24.88312884546424,"name":"Pohjois-Haagan asema","timestamp":"2023-10-18T20:35:03.702000Z"},{"empty_slots":2,"extra":{"uid":"339"},"free_bikes":16,"id":"540000bb9b02467a8919066f9f2f3287","latitude":60.25943112,"longitude":25.06489421,"name":"Alppikyl\u00e4","timestamp":"2023-10-18T20:35:03.709000Z"},{"empty_slots":13,"extra":{"uid":"219"},"free_bikes":4,"id":"1ab794653ad8c433a285554597dcf664","latitude":60.23285213757895,"longitude":24.887434554817386,"name":"N\u00e4yttelij\u00e4ntie","timestamp":"2023-10-18T20:35:03.710000Z"},{"empty_slots":26,"extra":{"uid":"581"},"free_bikes":8,"id":"eaa78b9ea9164a0e46532877a9568ee8","latitude":60.170758,"longitude":24.763184,"name":"Niittykumpu (M)","timestamp":"2023-10-18T20:35:03.715000Z"},{"empty_slots":11,"extra":{"uid":"340"},"free_bikes":7,"id":"1a0731db78f5774edcb46d656d9030ee","latitude":60.26101941,"longitude":25.0759056,"name":"Jakom\u00e4ki","timestamp":"2023-10-18T20:35:03.719000Z"},{"empty_slots":11,"extra":{"uid":"220"},"free_bikes":10,"id":"c5565c4b19b7e5b3cc2ee84a1733e59c","latitude":60.229488,"longitude":24.895199,"name":"Ida Aalbergin tie","timestamp":"2023-10-18T20:35:03.722000Z"},{"empty_slots":9,"extra":{"uid":"341"},"free_bikes":7,"id":"c870d232c9724260fc4557dd22e58293","latitude":60.27019655,"longitude":25.07271271,"name":"Heikinlaakso","timestamp":"2023-10-18T20:35:03.725000Z"},{"empty_slots":13,"extra":{"uid":"583"},"free_bikes":5,"id":"33acc637a3554c65b666278647abca6b","latitude":60.166481,"longitude":24.772708,"name":"Haukilahdensolmu","timestamp":"2023-10-18T20:35:03.726000Z"},{"empty_slots":10,"extra":{"uid":"100"},"free_bikes":2,"id":"ef0406ed7d90f75e71f5c6aa418a631f","latitude":60.20969562580255,"longitude":24.868739477207995,"name":"Telj\u00e4ntie","timestamp":"2023-10-18T20:35:03.727000Z"},{"empty_slots":3,"extra":{"uid":"221"},"free_bikes":17,"id":"3fcd55fe2be997527fe5978bf5a21cde","latitude":60.22534052315868,"longitude":24.894792651160333,"name":"Thalianaukio","timestamp":"2023-10-18T20:35:03.727000Z"},{"empty_slots":7,"extra":{"uid":"342"},"free_bikes":15,"id":"5d5eb7434d3a89eaf93a48823e83b1f4","latitude":60.27008566,"longitude":25.05753557,"name":"Puistolan VPK","timestamp":"2023-10-18T20:35:03.728000Z"},{"empty_slots":18,"extra":{"uid":"101"},"free_bikes":6,"id":"6ee3e23da86fc75c6f11a707fb805747","latitude":60.2059946,"longitude":24.8798291,"name":"Munkkivuoren ostoskeskus","timestamp":"2023-10-18T20:35:03.729000Z"},{"empty_slots":7,"extra":{"uid":"222"},"free_bikes":14,"id":"74167dfe7ed6a7daa1163835cd807cdb","latitude":60.22197553556329,"longitude":24.903286646676616,"name":"Huovitie","timestamp":"2023-10-18T20:35:03.730000Z"},{"empty_slots":9,"extra":{"uid":"343"},"free_bikes":8,"id":"50bbf77e5818fc48bb350e54957b8f17","latitude":60.223785,"longitude":25.021597,"name":"Koetilankuja","timestamp":"2023-10-18T20:35:03.731000Z"},{"empty_slots":6,"extra":{"uid":"585"},"free_bikes":14,"id":"e03f95d2886a60bf2b364776a99e3488","latitude":60.16269,"longitude":24.775853,"name":"Haukilahdenaukio","timestamp":"2023-10-18T20:35:03.732000Z"},{"empty_slots":16,"extra":{"uid":"223"},"free_bikes":0,"id":"c85fe035654681c580f0674377e957de","latitude":60.22769079,"longitude":24.90637276,"name":"H\u00e4meenlinnanv\u00e4yl\u00e4","timestamp":"2023-10-18T20:35:03.733000Z"},{"empty_slots":13,"extra":{"uid":"344"},"free_bikes":7,"id":"b8cb24a1e18e84e73296d77ac9d49dde","latitude":60.2751896,"longitude":25.03435012,"name":"Puistolan asema","timestamp":"2023-10-18T20:35:03.733000Z"},{"empty_slots":11,"extra":{"uid":"103"},"free_bikes":5,"id":"0c46b7b4b12b2b285c83817331c19b8e","latitude":60.208925,"longitude":24.8895209,"name":"Vihdintie","timestamp":"2023-10-18T20:35:03.734000Z"},{"empty_slots":1,"extra":{"uid":"224"},"free_bikes":19,"id":"e50f579d4e272976316a8f72a1528152","latitude":60.22794236805671,"longitude":24.926564764263762,"name":"Vesakkotie","timestamp":"2023-10-18T20:35:03.735000Z"},{"empty_slots":15,"extra":{"uid":"345"},"free_bikes":1,"id":"0a0e2904ee88718163afb4544608fb3f","latitude":60.27189,"longitude":25.032655,"name":"Porvarintie","timestamp":"2023-10-18T20:35:03.736000Z"},{"empty_slots":11,"extra":{"uid":"587"},"free_bikes":1,"id":"d8d1594239323944e2a30ef2493d8d85","latitude":60.162477,"longitude":24.767831,"name":"Hauenkallio","timestamp":"2023-10-18T20:35:03.737000Z"},{"empty_slots":5,"extra":{"uid":"104"},"free_bikes":17,"id":"ad9e0a5db64eaef1d584fc06c209273e","latitude":60.2056785,"longitude":24.8916817,"name":"Kriikunakuja","timestamp":"2023-10-18T20:35:03.738000Z"},{"empty_slots":12,"extra":{"uid":"225"},"free_bikes":4,"id":"7be3d431173508c4c19d04a84fb3a901","latitude":60.23131508,"longitude":24.93504574,"name":"Maunula","timestamp":"2023-10-18T20:35:03.739000Z"},{"empty_slots":17,"extra":{"uid":"346"},"free_bikes":1,"id":"c904b6eb937507a552946341c6d3d41e","latitude":60.27579858,"longitude":25.02766253,"name":"Maatullinkuja","timestamp":"2023-10-18T20:35:03.740000Z"},{"empty_slots":4,"extra":{"uid":"105"},"free_bikes":22,"id":"fc1f6699a6f7f547f7aa68148c34b728","latitude":60.2028392,"longitude":24.8934761,"name":"Tilkantori","timestamp":"2023-10-18T20:35:03.741000Z"},{"empty_slots":1,"extra":{"uid":"226"},"free_bikes":19,"id":"e66d7170cdfcb7873e18cc1775ebc330","latitude":60.23910894200569,"longitude":24.92859501499382,"name":"Lepolantie","timestamp":"2023-10-18T20:35:03.742000Z"},{"empty_slots":10,"extra":{"uid":"347"},"free_bikes":8,"id":"4b681cfa85649c912c1b6f700a70c65b","latitude":60.28075608,"longitude":25.01106298,"name":"Sateenkaarentie","timestamp":"2023-10-18T20:35:03.743000Z"},{"empty_slots":11,"extra":{"uid":"589"},"free_bikes":5,"id":"76c712df15e20f0f3b1d63f39c46f539","latitude":60.158048,"longitude":24.769864,"name":"Haukilahdenranta","timestamp":"2023-10-18T20:35:03.743000Z"},{"empty_slots":9,"extra":{"uid":"106"},"free_bikes":8,"id":"040440dad1795e9052e88b2e0088ea12","latitude":60.2034735,"longitude":24.8989297,"name":"Korppaanm\u00e4entie","timestamp":"2023-10-18T20:35:03.744000Z"},{"empty_slots":9,"extra":{"uid":"227"},"free_bikes":5,"id":"449224085f4ee036d3dd6bc9586fea6b","latitude":60.22440378465167,"longitude":24.952561243589713,"name":"Kyl\u00e4voudintie","timestamp":"2023-10-18T20:35:03.745000Z"},{"empty_slots":4,"extra":{"uid":"348"},"free_bikes":9,"id":"89eaf15084ce9ecbbf430f8940e97814","latitude":60.27446709,"longitude":24.98939662,"name":"Siltam\u00e4ki","timestamp":"2023-10-18T20:35:03.746000Z"},{"empty_slots":15,"extra":{"uid":"107"},"free_bikes":4,"id":"a9743cfde075f5757333ab97c1ad33e8","latitude":60.2024393,"longitude":24.9054609,"name":"Tenholantie","timestamp":"2023-10-18T20:35:03.747000Z"},{"empty_slots":6,"extra":{"uid":"228"},"free_bikes":6,"id":"98a0c5064220436efa57b1369ebacf40","latitude":60.2307028705708,"longitude":24.9487651621967,"name":"Kustaankartano","timestamp":"2023-10-18T20:35:03.747000Z"},{"empty_slots":9,"extra":{"uid":"349"},"free_bikes":9,"id":"6c5bc481c7dca75f2be5a80652cf4044","latitude":60.27196238,"longitude":25.00397029,"name":"T\u00f6yrynummentie","timestamp":"2023-10-18T20:35:03.748000Z"},{"empty_slots":11,"extra":{"uid":"108"},"free_bikes":1,"id":"f9e46400f78fa4777d745773803e64f0","latitude":60.20499,"longitude":24.918419,"name":"Radiokatu","timestamp":"2023-10-18T20:35:03.749000Z"},{"empty_slots":12,"extra":{"uid":"229"},"free_bikes":4,"id":"462565b5b92cd46dca588cb4e1d4e3ae","latitude":60.2325155,"longitude":24.95788852,"name":"K\u00e4skynhaltijantie","timestamp":"2023-10-18T20:35:03.750000Z"},{"empty_slots":20,"extra":{"uid":"109"},"free_bikes":1,"id":"97279ec16b5b61d2728dcfdff530f2af","latitude":60.202539,"longitude":24.922458,"name":"Hertanm\u00e4enkatu","timestamp":"2023-10-18T20:35:03.751000Z"},{"empty_slots":6,"extra":{"uid":"591"},"free_bikes":34,"id":"39492310537db662149233c2c8194d58","latitude":60.154941,"longitude":24.773993,"name":"Mellstenintie","timestamp":"2023-10-18T20:35:03.756000Z"},{"empty_slots":8,"extra":{"uid":"350"},"free_bikes":6,"id":"9b3a0182dd52135c187c768f29cc7d2e","latitude":60.26714677,"longitude":24.99299022,"name":"T\u00f6yrynummi","timestamp":"2023-10-18T20:35:03.757000Z"},{"empty_slots":13,"extra":{"uid":"230"},"free_bikes":2,"id":"27fe251b5bf84fb44f8472aa7ad408b2","latitude":60.22886563,"longitude":24.96354222,"name":"M\u00e4kitorpantie","timestamp":"2023-10-18T20:35:03.758000Z"},{"empty_slots":8,"extra":{"uid":"351"},"free_bikes":11,"id":"1290b85ed286ba63ae006b36319215de","latitude":60.2675063,"longitude":25.01357237,"name":"Kotinummentie","timestamp":"2023-10-18T20:35:03.758000Z"},{"empty_slots":1,"extra":{"uid":"593"},"free_bikes":13,"id":"53e00ef563247bddbc0d830c77000292","latitude":60.1591405,"longitude":24.782477,"name":"Toppelundintie","timestamp":"2023-10-18T20:35:03.759000Z"},{"empty_slots":15,"extra":{"uid":"110"},"free_bikes":5,"id":"3d403344e8defd5535c3026c0917aa2f","latitude":60.199151,"longitude":24.924873,"name":"Maistraatintori","timestamp":"2023-10-18T20:35:03.760000Z"},{"empty_slots":10,"extra":{"uid":"231"},"free_bikes":6,"id":"e8a0e32aa527f545a326cd0eeb9c6a6e","latitude":60.23370685633967,"longitude":24.96539507775229,"name":"Siltavoudintie","timestamp":"2023-10-18T20:35:03.761000Z"},{"empty_slots":11,"extra":{"uid":"352"},"free_bikes":1,"id":"4bac4a9f96377620c1e6588d0d7075b3","latitude":60.26330395,"longitude":25.02812397,"name":"Tapanilan asema","timestamp":"2023-10-18T20:35:03.762000Z"},{"empty_slots":19,"extra":{"uid":"111"},"free_bikes":1,"id":"3edda9b7dea10d5ecc603ea2fbf82073","latitude":60.1975724,"longitude":24.9267808,"name":"Esterinportti","timestamp":"2023-10-18T20:35:03.762000Z"},{"empty_slots":17,"extra":{"uid":"232"},"free_bikes":4,"id":"f72483ba5b64e6351e5f693108a6419f","latitude":60.22835033,"longitude":24.96767477,"name":"Oulunkyl\u00e4n asema","timestamp":"2023-10-18T20:35:03.763000Z"},{"empty_slots":14,"extra":{"uid":"353"},"free_bikes":7,"id":"a0e992820f93ab8a58ef02478fcca871","latitude":60.2632143,"longitude":25.0368876,"name":"Helluntairaitti","timestamp":"2023-10-18T20:35:03.764000Z"},{"empty_slots":15,"extra":{"uid":"595"},"free_bikes":1,"id":"469aeb95d13b4a39423fc2adae02e6dd","latitude":60.158194,"longitude":24.791754,"name":"Westendintie","timestamp":"2023-10-18T20:35:03.765000Z"},{"empty_slots":17,"extra":{"uid":"112"},"free_bikes":5,"id":"4d0d7dfbf120055a9638e81369e90474","latitude":60.2014382,"longitude":24.9332721,"name":"Rautatiel\u00e4isenkatu","timestamp":"2023-10-18T20:35:03.766000Z"},{"empty_slots":6,"extra":{"uid":"233"},"free_bikes":4,"id":"01572abee648ea144d94a65de428fd5c","latitude":60.22493036511101,"longitude":24.972819375145058,"name":"Kirkkoherrantie","timestamp":"2023-10-18T20:35:03.767000Z"},{"empty_slots":14,"extra":{"uid":"354"},"free_bikes":2,"id":"01d1a1add9be4892ee599c8126e3f549","latitude":60.25909157,"longitude":25.02909058,"name":"Saniaiskuja","timestamp":"2023-10-18T20:35:03.768000Z"},{"empty_slots":13,"extra":{"uid":"596"},"free_bikes":14,"id":"64400dfda18d5acd9e54ad0092f2d0e1","latitude":60.1624471,"longitude":24.7848628,"name":"Toppelundinportti","timestamp":"2023-10-18T20:35:03.769000Z"},{"empty_slots":39,"extra":{"uid":"113"},"free_bikes":1,"id":"da72c57d758295e0464166368b03a78b","latitude":60.198210866794,"longitude":24.9327990790329,"name":"Pasilan asema","timestamp":"2023-10-18T20:35:03.770000Z"},{"empty_slots":2,"extra":{"uid":"234"},"free_bikes":51,"id":"966404784d63abb9cc5561f99df74905","latitude":60.23178406584145,"longitude":24.978138919040457,"name":"Otto Brandtin tie","timestamp":"2023-10-18T20:35:03.770000Z"},{"empty_slots":4,"extra":{"uid":"355"},"free_bikes":15,"id":"1e8cf503302f96879680cd8c6def27df","latitude":60.26090681,"longitude":25.01765775,"name":"Halmetie","timestamp":"2023-10-18T20:35:03.771000Z"},{"empty_slots":5,"extra":{"uid":"597"},"free_bikes":8,"id":"38b2ea2b1949240299152fd790b0e461","latitude":60.1637,"longitude":24.790132,"name":"Linnakepolku","timestamp":"2023-10-18T20:35:03.772000Z"},{"empty_slots":20,"extra":{"uid":"114"},"free_bikes":0,"id":"f333bf81ef91acd2afeca3046b939057","latitude":60.196431,"longitude":24.936256,"name":"Ratapihantie","timestamp":"2023-10-18T20:35:03.773000Z"},{"empty_slots":8,"extra":{"uid":"235"},"free_bikes":13,"id":"fa2e847b75135763b0f06660e5c195fe","latitude":60.217214807977534,"longitude":24.984420078358692,"name":"Katariina Saksilaisen katu","timestamp":"2023-10-18T20:35:03.774000Z"},{"empty_slots":12,"extra":{"uid":"356"},"free_bikes":2,"id":"d0deba483979047d1a6be9e0094e486d","latitude":60.26088465,"longitude":25.00331024,"name":"Laulurastaantie","timestamp":"2023-10-18T20:35:03.775000Z"},{"empty_slots":11,"extra":{"uid":"115"},"free_bikes":7,"id":"ad22db44a62ee3fb4fa7fbf881b14115","latitude":60.1942095,"longitude":24.941578,"name":"Venttiilikuja","timestamp":"2023-10-18T20:35:03.776000Z"},{"empty_slots":10,"extra":{"uid":"236"},"free_bikes":6,"id":"35d2f1c7bfca5871588549b8c7a849e9","latitude":60.224212141004635,"longitude":24.98860011548657,"name":"Hernepellontie","timestamp":"2023-10-18T20:35:03.784000Z"},{"empty_slots":2,"extra":{"uid":"357"},"free_bikes":20,"id":"a5655265338c37a114813eaf3f8b14b4","latitude":60.25969904,"longitude":24.98975388,"name":"Vanha Tapanilantie","timestamp":"2023-10-18T20:35:03.786000Z"},{"empty_slots":19,"extra":{"uid":"116"},"free_bikes":10,"id":"dc40bc24efcc5f5aa70d826b7c86a234","latitude":60.19113575,"longitude":24.9402049,"name":"Linnanm\u00e4ki","timestamp":"2023-10-18T20:35:03.789000Z"},{"empty_slots":13,"extra":{"uid":"237"},"free_bikes":3,"id":"26ae72fdc24fb8fa682ebfbd301dcbda","latitude":60.23030192663912,"longitude":24.998533819860555,"name":"Aulangontie","timestamp":"2023-10-18T20:35:03.794000Z"},{"empty_slots":17,"extra":{"uid":"358"},"free_bikes":1,"id":"3282f9d6a5dec588638bb2a480484848","latitude":60.25667117,"longitude":24.99860558,"name":"Syystie","timestamp":"2023-10-18T20:35:03.797000Z"},{"empty_slots":7,"extra":{"uid":"117"},"free_bikes":8,"id":"82efe13c9fdd8418a541315f60755563","latitude":60.1896706,"longitude":24.9481024,"name":"Brahen puistikko","timestamp":"2023-10-18T20:35:03.801000Z"},{"empty_slots":14,"extra":{"uid":"238"},"free_bikes":2,"id":"5483f2b9e0d932e256b7f38be2bad0bd","latitude":60.234578571034135,"longitude":25.010313905081038,"name":"Pihlajam\u00e4ki","timestamp":"2023-10-18T20:35:03.804000Z"},{"empty_slots":15,"extra":{"uid":"359"},"free_bikes":1,"id":"be38cc279f051e60c408f46e3ded12d5","latitude":60.25415862,"longitude":25.00282802,"name":"Malmin sairaala","timestamp":"2023-10-18T20:35:03.809000Z"},{"empty_slots":19,"extra":{"uid":"118"},"free_bikes":3,"id":"b19f98e13950232a03ac0253fda13373","latitude":60.1895417,"longitude":24.9521601,"name":"Fleminginkatu","timestamp":"2023-10-18T20:35:03.812000Z"},{"empty_slots":16,"extra":{"uid":"239"},"free_bikes":26,"id":"7c02a0e03f864ecef23d7bd82d711f7d","latitude":60.227520671727405,"longitude":25.010062061139756,"name":"Viikin tiedepuisto","timestamp":"2023-10-18T20:35:03.813000Z"},{"empty_slots":17,"extra":{"uid":"119"},"free_bikes":3,"id":"e1eabab386ef6934bef5c40d1f1cd87c","latitude":60.19118046,"longitude":24.95507679,"name":"Gebhardinaukio","timestamp":"2023-10-18T20:35:03.813000Z"},{"empty_slots":21,"extra":{"uid":"360"},"free_bikes":3,"id":"d39ea7a65e6c6f521b87b48b6183cdad","latitude":60.25232553,"longitude":25.00912157,"name":"Malmin asema","timestamp":"2023-10-18T20:35:03.816000Z"},{"empty_slots":2,"extra":{"uid":"240"},"free_bikes":44,"id":"b260cd5077b38449f26ca10211a1e427","latitude":60.227495295832895,"longitude":25.02761893353016,"name":"Viikin normaalikoulu","timestamp":"2023-10-18T20:35:03.817000Z"},{"empty_slots":13,"extra":{"uid":"361"},"free_bikes":4,"id":"88b7855c6d92f01219c320fec092cb35","latitude":60.25756333,"longitude":25.01310802,"name":"Huhtakuja","timestamp":"2023-10-18T20:35:03.818000Z"},{"empty_slots":28,"extra":{"uid":"120"},"free_bikes":0,"id":"9db5162539e3be369da826838065e176","latitude":60.1896352,"longitude":24.9635596,"name":"M\u00e4kel\u00e4nkatu","timestamp":"2023-10-18T20:35:03.819000Z"},{"empty_slots":3,"extra":{"uid":"241"},"free_bikes":28,"id":"d7bd23dcb8aefc49edd981dad5785e38","latitude":60.2340530100318,"longitude":25.032857400999006,"name":"Agronominkatu","timestamp":"2023-10-18T20:35:03.819000Z"},{"empty_slots":11,"extra":{"uid":"362"},"free_bikes":3,"id":"ec76b2bde69acba9e93111f44e11c13c","latitude":60.25339409,"longitude":25.02149008,"name":"Teerisuontie","timestamp":"2023-10-18T20:35:03.820000Z"},{"empty_slots":4,"extra":{"uid":"121"},"free_bikes":22,"id":"6df7c3f54fb8bbf419a7c6ec8f6eb8e0","latitude":60.18645529,"longitude":24.96785144,"name":"Vilhonvuorenkatu","timestamp":"2023-10-18T20:35:03.823000Z"},{"empty_slots":10,"extra":{"uid":"242"},"free_bikes":4,"id":"09b76f57f573d4f4303d236a802c731f","latitude":60.23033717886547,"longitude":25.04356806988234,"name":"Von Daehnin katu","timestamp":"2023-10-18T20:35:03.824000Z"},{"empty_slots":12,"extra":{"uid":"363"},"free_bikes":0,"id":"06493b95b2a715fc8dcffe70fc316f26","latitude":60.24269283,"longitude":25.0297267,"name":"V\u00e4\u00e4r\u00e4m\u00e4entie","timestamp":"2023-10-18T20:35:03.825000Z"},{"empty_slots":14,"extra":{"uid":"122"},"free_bikes":9,"id":"d6e1c2b7cab65e4b0cf39be6af30cc6a","latitude":60.1837182,"longitude":24.9621936,"name":"Lintulahdenkatu","timestamp":"2023-10-18T20:35:03.834000Z"},{"empty_slots":15,"extra":{"uid":"243"},"free_bikes":5,"id":"7fd46f063359134e5554500bd5a9b12d","latitude":60.181861779166056,"longitude":24.992037110168354,"name":"Mustikkamaa","timestamp":"2023-10-18T20:35:03.838000Z"},{"empty_slots":15,"extra":{"uid":"364"},"free_bikes":3,"id":"c4614f8e78ac2ee13ae2c7be8ae54f32","latitude":60.25030635,"longitude":25.01323714,"name":"Ala-Malmin tori","timestamp":"2023-10-18T20:35:03.840000Z"},{"empty_slots":7,"extra":{"uid":"123"},"free_bikes":6,"id":"37f0e7169a29518989f0771a7783bfd4","latitude":60.180021,"longitude":24.954707,"name":"N\u00e4kinsilta","timestamp":"2023-10-18T20:35:03.849000Z"},{"empty_slots":12,"extra":{"uid":"244"},"free_bikes":6,"id":"ebe30d538181c813d2ffc9b1f4082241","latitude":60.18588749805257,"longitude":25.00601922389024,"name":"Relanderinaukio","timestamp":"2023-10-18T20:35:03.853000Z"},{"empty_slots":12,"extra":{"uid":"365"},"free_bikes":6,"id":"464204a0d42a3b6e6c354e3eaba8fec2","latitude":60.24684531,"longitude":25.00786044,"name":"Karviaistie","timestamp":"2023-10-18T20:35:03.855000Z"},{"empty_slots":13,"extra":{"uid":"124"},"free_bikes":9,"id":"18757df75f572ff24ba88b2ead97352c","latitude":60.18265182058,"longitude":24.98179260578,"name":"Isois\u00e4nsilta","timestamp":"2023-10-18T20:35:03.862000Z"},{"empty_slots":16,"extra":{"uid":"245"},"free_bikes":9,"id":"f6fb3f2bf5379d68097a5c36d0753560","latitude":60.188950088551046,"longitude":25.006566530899704,"name":"Kulosaari (M)","timestamp":"2023-10-18T20:35:03.866000Z"},{"empty_slots":1,"extra":{"uid":"366"},