id,name,review_count,categories,rating,coordinates,location,distance,price
ugEdepE-1ik1ai2a7RgOLQ,Kahvihuone,2,"[{'alias': 'vietnamese', 'title': 'Vietnamese'}]",4.5,"{'latitude': 60.1908079818892, 'longitude': 24.9485151665915}","{'address1': 'Aleksis Kiven katu 42', 'address2': '', 'address3': None, 'city': 'Helsinki', 'zip_code': '00510', 'country': 'FI', 'state': '', 'display_address': ['Aleksis Kiven katu 42', '00510 Helsinki', 'Finland']}",176.15083885732318,
lbBzoV50lPlcPGGcDI2lVw,Mikura Sushi,4,"[{'alias': 'sushi', 'title': 'Sushi Bars'}]",4.5,"{'latitude': 60.1907631, 'longitude': 24.9472525}","{'address1': 'Viipurinkatu 1 C', 'address2': '', 'address3': '', 'city': 'Helsinki', 'zip_code': '00510', 'country': 'FI', 'state': '18', 'display_address': ['Viipurinkatu 1 C', '00510 Helsinki', 'Finland']}",181.20518649495216,€€
nxqJvOoJTxW0AfAncnJYIw,MusKan,2,"[{'alias': 'himalayan', 'title': 'Himalayan/Nepalese'}]",4.0,"{'latitude': 60.1913412130312, 'longitude': 24.9452347014189}","{'address1': 'Kajaaninkatu 2', 'address2': 'Kajanagatan 2', 'address3': '', 'city': 'Helsinki', 'zip_code': '00510', 'country': 'FI', 'state': '18', 'display_address': ['Kajaaninkatu 2', 'Kajanagatan 2', '00510 Helsinki', 'Finland']}",185.5597030809307,
dp1ep3CLiiJ-fPCuGO7Aog,Alppilan Huone,3,"[{'alias': 'vietnamese', 'title': 'Vietnamese'}, {'alias': 'bars', 'title': 'Bars'}]",3.0,"{'latitude': 60.19113, 'longitude': 24.94691}","{'address1': 'Porvoonkatu 19', 'address2': None, 'address3': '', 'city': 'Helsinki', 'zip_code': '00100', 'country': 'FI', 'state': '18', 'display_address': ['Porvoonkatu 19', '00100 Helsinki', 'Finland']}",187.79252530946397,
y6Ur01FXhRORIDhkxm4mSw,Weeruska,22,"[{'alias': 'scandinavian', 'title': 'Scandinavian'}]",3.5,"{'latitude': 60.1908014222147, 'longitude': 24.9463999271393}","{'address1': 'Porvoonkatu 19', 'address2': 'Borgågatan 19', 'address3': None, 'city': 'HELSINKI', 'zip_code': '00510', 'country': 'FI', 'state': '18', 'display_address': ['Porvoonkatu 19', 'Borgågatan 19', '00510 HELSINKI', 'Finland']}",192.0606753467046,€€
pQSGzlujrDWYb4ILmGYRWw,KOKORO Sushi,2,"[{'alias': 'sushi', 'title': 'Sushi Bars'}]",5.0,"{'latitude': 60.19418, 'longitude': 24.95073}","{'address1': 'Elimäenkatu 9', 'address2': '', 'address3': '', 'city': 'Helsinki', 'zip_code': '00510', 'country': 'FI', 'state': '01', 'display_address': ['Elimäenkatu 9', '00510 Helsinki', 'Finland']}",236.49699159164774,
dX2i5RekOASTVCXOCvsCPQ,Golden Rice Bowl,3,"[{'alias': 'chinese', 'title': 'Chinese'}]",2.5,"{'latitude': 60.1907387, 'longitude': 24.9445}","{'address1': 'Porvoonkatu 16', 'address2': None, 'address3': None, 'city': 'Helsinki', 'zip_code': '00510', 'country': 'FI', 'state': '18', 'display_address': ['Porvoonkatu 16', '00510 Helsinki', 'Finland']}",239.84038553738762,
-c5MiG5SSsDLMrvZ_gBF5Q,Sture 21,1,"[{'alias': 'musicvenues', 'title': 'Music Venues'}, {'alias': 'jazzandblues', 'title': 'Jazz & Blues'}, {'alias': 'comfortfood', 'title': 'Comfort Food'}]",3.0,"{'latitude': 60.1922277, 'longitude': 24.9525574}","{'address1': 'Sturenkatu 21', 'address2': '', 'address3': '', 'city': 'Helsinki', 'zip_code': '00510', 'country': 'FI', 'state': '18', 'display_address': ['Sturenkatu 21', '00510 Helsinki', 'Finland']}",258.34578323543184,
tJGEIpzbPOH4P-lN0s1_qg,Caruzello,1,"[{'alias': 'buffets', 'title': 'Buffets'}]",3.0,"{'latitude': 60.1883583, 'longitude': 24.9405003}","{'address1': 'Tivolokuja 1', 'address2': 'Linnanmäen keittiömaailma Kattila, 2krs.', 'address3': '', 'city': 'Helsinki', 'zip_code': '00510', 'country': 'FI', 'state': '18', 'display_address': ['Tivolokuja 1', 'Linnanmäen keittiömaailma Kattila, 2krs.', '00510 Helsinki', 'Finland']}",297.20178537197216,
8lk_YzQdc-KLmnMfL15uaw,Everest,1,"[{'alias': 'himalayan', 'title': 'Himalayan/Nepalese'}]",4.0,"{'latitude': 60.1953392, 'longitude': 24.9472103}","{'address1': 'Elimäenkatu 20 A', 'address2': '', 'address3': '', 'city': 'Helsinki', 'zip_code': '00510', 'country': 'FI', 'state': '18', 'display_address': ['Elimäenkatu 20 A', '00510 Helsinki', 'Finland']}",312.2082629810623,
scDGIvGu0OnZvuGJucpFfg,Going Greek,1,"[{'alias': 'greek', 'title': 'Greek'}]",2.0,"{'latitude': 60.18906, 'longitude': 24.94773}","{'address1': 'Läntinen Brahenkatu 12', 'address2': 'Västra Brahegatan 12', 'address3': None, 'city': 'Helsinki', 'zip_code': '00510', 'country': 'FI', 'state': '01', 'display_address': ['Läntinen Brahenkatu 12', 'Västra Brahegatan 12', '00510 Helsinki', 'Finland']}",368.0434049368029,
0S-W9czj4Je22gH4Zxd_jA,Bites Vallila,5,"[{'alias': 'burgers', 'title': 'Burgers'}]",4.5,"{'latitude': 60.1956497023996, 'longitude': 24.9511537262297}","{'address1': 'Nokiantie 2-4', 'address2': 'Nokiavägen 2-4', 'address3': '', 'city': 'Helsinki', 'zip_code': '00510', 'country': 'FI', 'state': '01', 'display_address': ['Nokiantie 2-4', 'Nokiavägen 2-4', '00510 Helsinki', 'Finland']}",407.6797805456662,€
TU2VSjtGFITodbSw0tT1NA,Factory Bistro Vallila,1,"[{'alias': 'bistros', 'title': 'Bistros'}, {'alias': 'breakfast_brunch', 'title': 'Breakfast & Brunch'}]",4.0,"{'latitude': 60.196677432164, 'longitude': 24.9474621138246}","{'address1': 'Elimäenkatu 26', 'address2': 'Elimägatan 26', 'address3': None, 'city': 'Helsinki', 'zip_code': '00510', 'country': 'FI', 'state': '01', 'display_address': ['Elimäenkatu 26', 'Elimägatan 26', '00510 Helsinki', 'Finland']}",480.4963529732734,
avvFSnQl2aTqtCvzLld3Tg,Döner Harju,33,"[{'alias': 'kebab', 'title': 'Kebab'}]",4.5,"{'latitude': 60.1886292593151, 'longitude': 24.9532030745918}","{'address1': 'Fleminginkatu 23', 'address2': 'Flemingsgatan 23', 'address3': '', 'city': 'Helsinki', 'zip_code': '00510', 'country': 'FI', 'state': '18', 'display_address': ['Fleminginkatu 23', 'Flemingsgatan 23', '00510 Helsinki', 'Finland']}",508.37248847246036,€
hr3M6VcTWkb_zL7zXTtabg,Cheng Long,9,"[{'alias': 'chinese', 'title': 'Chinese'}, {'alias': 'japanese', 'title': 'Japanese'}]",3.5,"{'latitude': 60.1948487, 'longitude': 24.9556584}","{'address1': 'Mäkelänkatu 38', 'address2': 'Backasgatan 38', 'address3': None, 'city': 'Helsinki', 'zip_code': '00510', 'country': 'FI', 'state': '18', 'display_address': ['Mäkelänkatu 38', 'Backasgatan 38', '00510 Helsinki', 'Finland']}",510.67648365289875,€
AYzEzpTQPeUV-8GRfyoGtw,McDonald's,2,"[{'alias': 'hotdogs', 'title': 'Fast Food'}, {'alias': 'burgers', 'title': 'Burgers'}]",3.5,"{'latitude': 60.1904115162543, 'longitude': 24.9562615671353}","{'address1': 'Teollisuuskatu 6', 'address2': '', 'address3': '', 'city': 'Helsinki', 'zip_code': '00500', 'country': 'FI', 'state': '18', 'display_address': ['Teollisuuskatu 6', '00500 Helsinki', 'Finland']}",510.96058075048,€
FU0eMXexvtMx9yAVv3QEsA,Beach,3,"[{'alias': 'restaurants', 'title': 'Restaurants'}, {'alias': 'bars', 'title': 'Bars'}]",4.0,"{'latitude': 60.1944389, 'longitude': 24.95611}","{'address1': 'Sturenkatu 28', 'address2': None, 'address3': '', 'city': 'Helsinki', 'zip_code': '00510', 'country': 'FI', 'state': '18', 'display_address': ['Sturenkatu 28', '00510 Helsinki', 'Finland']}",512.8972265143473,€€
fYjjq3FpdpdK6vWMamK-rg,Mukesh,1,"[{'alias': 'coffee', 'title': 'Coffee & Tea'}]",3.0,"{'latitude': 60.1944389, 'longitude': 24.95611}","{'address1': 'Sturenkatu 28', 'address2': None, 'address3': None, 'city': 'Helsinki', 'zip_code': '00510', 'country': 'FI', 'state': '18', 'display_address': ['Sturenkatu 28', '00510 Helsinki', 'Finland']}",512.8972265143473,
s078IEvGkenjjxI8c4mW4w,Addis Ethiopian Kitchen,2,"[{'alias': 'ethiopian', 'title': 'Ethiopian'}]",5.0,"{'latitude': 60.19444, 'longitude': 24.95611}","{'address1': 'Sturenkatu 28', 'address2': 'Sturegatan 28', 'address3': None, 'city': 'Helsinki', 'zip_code': '00510', 'country': 'FI', 'state': '01', 'display_address': ['Sturenkatu 28', 'Sturegatan 28', '00510 Helsinki', 'Finland']}",513.0072330321507,
244FVY72aBF9nLtiKucmqg,My Way,1,"[{'alias': 'restaurants', 'title': 'Restaurants'}, {'alias': 'bars', 'title': 'Bars'}]",3.0,"{'latitude': 60.1946487, 'longitude': 24.9558201}","{'address1': 'Mäkelänkatu 32', 'address2': None, 'address3': None, 'city': 'Helsinki', 'zip_code': '00510', 'country': 'FI', 'state': '18', 'display_address': ['Mäkelänkatu 32', '00510 Helsinki', 'Finland']}",519.0009922343507,
ExKRUh_CfQ8QfUs07W8ssQ,BLINIt,23,"[{'alias': 'russian', 'title': 'Russian'}]",4.0,"{'latitude': 60.18782, 'longitude': 24.94535}","{'address1': 'Sturenkatu 9', 'address2': 'Sturegatan 9', 'address3': '', 'city': 'Helsinki', 'zip_code': '00510', 'country': 'FI', 'state': '18', 'display_address': ['Sturenkatu 9', 'Sturegatan 9', '00510 Helsinki', 'Finland']}",520.1121079457214,€
4UTC25OdK5SoVcH3aMdaig,Sepia,4,"[{'alias': 'kebab', 'title': 'Kebab'}, {'alias': 'pizza', 'title': 'Pizza'}, {'alias': 'bars', 'title': 'Bars'}]",4.5,"{'latitude': 60.19444, 'longitude': 24.95611}","{'address1': 'Mäkelänkatu 30', 'address2': 'Backasgatan 30', 'address3': '', 'city': 'Helsinki', 'zip_code': '00510', 'country': 'FI', 'state': '18', 'display_address': ['Mäkelänkatu 30', 'Backasgatan 30', '00510 Helsinki', 'Finland']}",525.7740062244761,€€
PFapHzF-jhCiTC5g0nfdeA,Ravintola 91.1,3,"[{'alias': 'restaurants', 'title': 'Restaurants'}]",3.5,"{'latitude': 60.1964798, 'longitude': 24.9442902}","{'address1': 'Kumpulantie 7', 'address2': '', 'address3': '', 'city': 'Helsinki', 'zip_code': '00520', 'country': 'FI', 'state': '18', 'display_address': ['Kumpulantie 7', '00520 Helsinki', 'Finland']}",527.1259311180835,€
ornldz2owVI0xsQxsxad5A,Savor,2,"[{'alias': 'buffets', 'title': 'Buffets'}, {'alias': 'scandinavian', 'title': 'Scandinavian'}]",4.5,"{'latitude': 60.1971250215486, 'longitude': 24.9479781822373}","{'address1': 'Elimäenkatu 25-27', 'address2': '', 'address3': '', 'city': 'Helsinki', 'zip_code': '00510', 'country': 'FI', 'state': '18', 'display_address': ['Elimäenkatu 25-27', '00510 Helsinki', 'Finland']}",529.7020499327792,€
FodwbyQU711T5NVOT1-gWg,Midhill,4,"[{'alias': 'tradamerican', 'title': 'American (Traditional)'}]",3.5,"{'latitude': 60.1883583, 'longitude': 24.9405003}","{'address1': 'Tivolikuja 1', 'address2': '', 'address3': '', 'city': 'Helsinki', 'zip_code': '00510', 'country': 'FI', 'state': '18', 'display_address': ['Tivolikuja 1', '00510 Helsinki', 'Finland']}",540.4693341444416,€€€
PNfdlpA_dn2xZk0llw-SIg,Funky Kitchen,3,"[{'alias': 'tradamerican', 'title': 'American (Traditional)'}, {'alias': 'burgers', 'title': 'Burgers'}]",3.0,"{'latitude': 60.1883583, 'longitude': 24.9405003}","{'address1': 'Linnanmäki', 'address2': 'Tivolikuja 1', 'address3': '', 'city': 'Helsinki', 'zip_code': '00510', 'country': 'FI', 'state': '18', 'display_address': ['Linnanmäki', 'Tivolikuja 1', '00510 Helsinki', 'Finland']}",543.2327719016328,
Hh20EhhqoEn7vx1TyMuXaA,Coccola,3,"[{'alias': 'mediterranean', 'title': 'Mediterranean'}]",2.5,"{'latitude': 60.1883583, 'longitude': 24.9405003}","{'address1': 'Tivolikuja 1', 'address2': '', 'address3': '', 'city': 'Helsinki', 'zip_code': '00510', 'country': 'FI', 'state': '18', 'display_address': ['Tivolikuja 1', '00510 Helsinki', 'Finland']}",543.2327719016328,€€
EyFMRSiUVfSMdFcB040-Wg,Romano,4,"[{'alias': 'pizza', 'title': 'Pizza'}]",3.0,"{'latitude': 60.187561, 'longitude': 24.9477806}","{'address1': 'Läntinen Brahenkatu 4 A', 'address2': None, 'address3': None, 'city': 'Helsinki', 'zip_code': '00510', 'country': 'FI', 'state': '18', 'display_address': ['Läntinen Brahenkatu 4 A', '00510 Helsinki', 'Finland']}",551.5977169097412,
9lKBIQfOU8p-rrl7kN952Q,Zorbas,10,"[{'alias': 'greek', 'title': 'Greek'}]",4.0,"{'latitude': 60.187561, 'longitude': 24.9477806}","{'address1': 'Läntinen Brahenkatu 4 A', 'address2': None, 'address3': None, 'city': 'Helsinki', 'zip_code': '00510', 'country': 'FI', 'state': '18', 'display_address': ['Läntinen Brahenkatu 4 A', '00510 Helsinki', 'Finland']}",551.5977169097412,€€
ntMVllAmgclpoNtgHQMr7w,King Kebab,10,"[{'alias': 'turkish', 'title': 'Turkish'}]",3.0,"{'latitude': 60.1951103, 'longitude': 24.9568806}","{'address1': 'Mäkelänkatu 31', 'address2': None, 'address3': None, 'city': 'Helsinki', 'zip_code': '00550', 'country': 'FI', 'state': '18', 'display_address': ['Mäkelänkatu 31', '00550 Helsinki', 'Finland']}",561.0013234472233,€
ieyOwy46p4E2jwEDaUj3hw,Factory,8,"[{'alias': 'steak', 'title': 'Steakhouses'}, {'alias': 'vegetarian', 'title': 'Vegetarian'}, {'alias': 'pizza', 'title': 'Pizza'}]",3.0,"{'latitude': 60.1963806, 'longitude': 24.9420109}","{'address1': 'Kumpulantie 3', 'address2': None, 'address3': None, 'city': 'Helsinki', 'zip_code': '00520', 'country': 'FI', 'state': '18', 'display_address': ['Kumpulantie 3', '00520 Helsinki', 'Finland']}",566.6191626529984,€
IDUWW7KnSnd8WMUQ4Z-G6Q,namnam,1,"[{'alias': 'vietnamese', 'title': 'Vietnamese'}, {'alias': 'cafeteria', 'title': 'Cafeteria'}]",5.0,"{'latitude': 60.1880066, 'longitude': 24.9533259}","{'address1': 'Fleminginkatu 21', 'address2': 'Flemingsgatan 21', 'address3': '', 'city': 'Helsinki', 'zip_code': '00101', 'country': 'FI', 'state': '01', 'display_address': ['Fleminginkatu 21', 'Flemingsgatan 21', '00101 Helsinki', 'Finland']}",574.8883832106247,
EzOSNQDS2GOB91xdle8IlQ,Marco Polo,5,"[{'alias': 'pizza', 'title': 'Pizza'}, {'alias': 'salad', 'title': 'Salad'}, {'alias': 'kebab', 'title': 'Kebab'}]",4.0,"{'latitude': 60.1936417, 'longitude': 24.9578991}","{'address1': 'Mäkelänkatu 22', 'address2': '', 'address3': '', 'city': 'Helsinki', 'zip_code': '00550', 'country': 'FI', 'state': '18', 'display_address': ['Mäkelänkatu 22', '00550 Helsinki', 'Finland']}",579.5739904957702,€
vUYWrxh0usiKgsj7ScQClg,Mashiro,6,"[{'alias': 'japanese', 'title': 'Japanese'}]",4.0,"{'latitude': 60.19364, 'longitude': 24.9579}","{'address1': 'Mäkelänkatu 22', 'address2': 'Backasgatan 22', 'address3': '', 'city': 'Helsinki', 'zip_code': '00510', 'country': 'FI', 'state': '18', 'display_address': ['Mäkelänkatu 22', 'Backasgatan 22', '00510 Helsinki', 'Finland']}",580.0430206365701,€€
9s4wNfKmw26V8wwUwiszUQ,African Pots,5,"[{'alias': 'african', 'title': 'African'}]",4.0,"{'latitude': 60.1975023751287, 'longitude': 24.9504869069153}","{'address1': 'Mäkelänkatu 45', 'address2': '', 'address3': '', 'city': 'Helsinki', 'zip_code': '00550', 'country': 'FI', 'state': '18', 'display_address': ['Mäkelänkatu 45', '00550 Helsinki', 'Finland']}",589.3669993976371,€
zNoY5NFqCHR6udTJBjfecg,Coco Grill,1,"[{'alias': 'latin', 'title': 'Latin American'}]",4.0,"{'latitude': 60.19459, 'longitude': 24.95784}","{'address1': 'Sturenkatu 31', 'address2': 'Sturegatan 31', 'address3': None, 'city': 'Helsinki', 'zip_code': '00550', 'country': 'FI', 'state': '01', 'display_address': ['Sturenkatu 31', 'Sturegatan 31', '00550 Helsinki', 'Finland']}",593.9676430898569,€€
l2WNTMtSvlkSYvTLKesa7Q,Peking,7,"[{'alias': 'chinese', 'title': 'Chinese'}]",3.5,"{'latitude': 60.1890411, 'longitude': 24.9566498}","{'address1': 'Aleksis Kiven Katu 16', 'address2': None, 'address3': None, 'city': 'Helsinki', 'zip_code': '00500', 'country': 'FI', 'state': '18', 'display_address': ['Aleksis Kiven Katu 16', '00500 Helsinki', 'Finland']}",611.7280859850657,€€
5xfz1wTFdewEe9aoskWQZQ,Parnell's,2,"[{'alias': 'restaurants', 'title': 'Restaurants'}, {'alias': 'irish_pubs', 'title': 'Irish Pub'}]",2.5,"{'latitude': 60.1868491002364, 'longitude': 24.9482452869415}","{'address1': 'Cumulus Olympia', 'address2': 'Läntinen Brahenkatu 2', 'address3': None, 'city': 'Helsinki', 'zip_code': '00510', 'country': 'FI', 'state': '18', 'display_address': ['Cumulus Olympia', 'Läntinen Brahenkatu 2', '00510 Helsinki', 'Finland']}",613.2611753897427,
_IXFDeVNVHtu37xVnb9MaA,Kattila,3,"[{'alias': 'restaurants', 'title': 'Restaurants'}]",2.5,"{'latitude': 60.1883583, 'longitude': 24.9405003}","{'address1': 'Linnanmäki', 'address2': 'Tivolikuja 1', 'address3': '', 'city': 'Helsinki', 'zip_code': '00510', 'country': 'FI', 'state': '18', 'display_address': ['Linnanmäki', 'Tivolikuja 1', '00510 Helsinki', 'Finland']}",622.3117600623175,
v6oiuKpHxYL3znz0PHRmSA,Pelinainen,1,"[{'alias': 'restaurants', 'title': 'Restaurants'}]",2.0,"{'latitude': 60.1867981, 'longitude': 24.9476509}","{'address1': 'Helsinginkatu 25', 'address2': None, 'address3': None, 'city': 'Helsinki', 'zip_code': '00510', 'country': 'FI', 'state': '18', 'display_address': ['Helsinginkatu 25', '00510 Helsinki', 'Finland']}",636.5601703858946,€
t3ZF1tc3ji6nf-p40z-LSg,Tuk Tuk,13,"[{'alias': 'thai', 'title': 'Thai'}]",4.0,"{'latitude': 60.1886597, 'longitude': 24.9561005}","{'address1': 'Vaasankatu 19', 'address2': '', 'address3': '', 'city': 'Helsinki', 'zip_code': '00500', 'country': 'FI', 'state': '18', 'display_address': ['Vaasankatu 19', '00500 Helsinki', 'Finland']}",636.871054405053,€€
pCpdg1keICK7ziouQoOcKw,Tintin yögrilli,7,"[{'alias': 'hotdogs', 'title': 'Fast Food'}]",2.5,"{'latitude': 60.1872215, 'longitude': 24.9526005}","{'address1': 'Helsinginkatu 21', 'address2': '', 'address3': '', 'city': 'Helsinki', 'zip_code': '00510', 'country': 'FI', 'state': '18', 'display_address': ['Helsinginkatu 21', '00510 Helsinki', 'Finland']}",638.8851923358372,€
ujCmSLkPY71RHxAcl8RrrA,Sturenkadun Pizzeria,4,"[{'alias': 'pizza', 'title': 'Pizza'}]",2.5,"{'latitude': 60.194931, 'longitude': 24.9585209}","{'address1': 'Sturenkatu 35', 'address2': '', 'address3': '', 'city': 'Helsinki', 'zip_code': '00550', 'country': 'FI', 'state': '18', 'display_address': ['Sturenkatu 35', '00550 Helsinki', 'Finland']}",642.4458496343536,
BRUCh3g5-HovnOb4_WP2cA,Danphe,9,"[{'alias': 'himalayan', 'title': 'Himalayan/Nepalese'}]",3.5,"{'latitude': 60.1951904, 'longitude': 24.9577198}","{'address1': 'Sturenkatu 32-34', 'address2': '', 'address3': '', 'city': 'Helsinki', 'zip_code': '00550', 'country': 'FI', 'state': '18', 'display_address': ['Sturenkatu 32-34', '00550 Helsinki', 'Finland']}",645.1453496265899,€€
nB83qZgVHnCKcB56px-dCg,Kallion B12,5,"[{'alias': 'pubs', 'title': 'Pubs'}, {'alias': 'restaurants', 'title': 'Restaurants'}]",3.0,"{'latitude': 60.1881104, 'longitude': 24.9563599}","{'address1': 'Vaasankatu 12', 'address2': '', 'address3': '', 'city': 'Helsinki', 'zip_code': '00500', 'country': 'FI', 'state': '18', 'display_address': ['Vaasankatu 12', '00500 Helsinki', 'Finland']}",648.3424484302417,€€
ikOSXohz2S5wP_KBopZeJg,Kivi,1,"[{'alias': 'gastropubs', 'title': 'Gastropubs'}]",3.0,"{'latitude': 60.1890297, 'longitude': 24.9573193}","{'address1': 'Aleksis Kiven katu 14', 'address2': None, 'address3': None, 'city': 'Helsinki', 'zip_code': '00500', 'country': 'FI', 'state': '18', 'display_address': ['Aleksis Kiven katu 14', '00500 Helsinki', 'Finland']}",648.8186132108855,
2jrI4xEA0nV7ycEtReYvmw,Pizza Service,1,"[{'alias': 'pizza', 'title': 'Pizza'}]",3.0,"{'latitude': 60.18722, 'longitude': 24.9526}","{'address1': 'Helsinginkatu 21', 'address2': 'Helsingegatan 21', 'address3': None, 'city': 'Helsinki', 'zip_code': '00510', 'country': 'FI', 'state': '18', 'display_address': ['Helsinginkatu 21', 'Helsingegatan 21', '00510 Helsinki', 'Finland']}",649.9292707425207,
yeU5IEoqz93GWit5BEvEbg,Hakaniemenrannan Grilli,1,"[{'alias': 'hotdogs', 'title': 'Fast Food'}]",3.0,"{'latitude': 60.1947098, 'longitude': 24.9569302}","{'address1': 'Mäkelänkatu', 'address2': '', 'address3': '', 'city': 'Helsinki', 'zip_code': '00550', 'country': 'FI', 'state': '18', 'display_address': ['Mäkelänkatu', '00550 Helsinki', 'Finland']}",652.0658837739828,
jU2Gq2_iDd3eYjEL45Vr3A,Quick Wok,5,"[{'alias': 'chinese', 'title': 'Chinese'}]",3.0,"{'latitude': 60.1890602, 'longitude': 24.9579906}","{'address1': 'Aleksis Kiven Katu 12', 'address2': None, 'address3': None, 'city': 'Helsinki', 'zip_code': '00500', 'country': 'FI', 'state': '18', 'display_address': ['Aleksis Kiven Katu 12', '00500 Helsinki', 'Finland']}",672.7027352576675,€
AqECf2aAHiBde6B6tMnLPQ,Hesburger,3,"[{'alias': 'burgers', 'title': 'Burgers'}, {'alias': 'hotdogs', 'title': 'Fast Food'}]",3.0,"{'latitude': 60.1863060188154, 'longitude': 24.9479596316814}","{'address1': 'Helsinginkatu 28', 'address2': 'Helsingegatan 28', 'address3': None, 'city': 'Helsinki', 'zip_code': '00530', 'country': 'FI', 'state': '18', 'display_address': ['Helsinginkatu 28', 'Helsingegatan 28', '00530 Helsinki', 'Finland']}",673.3472447536154,€
czQZQ7Nn__cp5GiSS6bKEg,Just Vege,9,"[{'alias': 'vegetarian', 'title': 'Vegetarian'}, {'alias': 'mediterranean', 'title': 'Mediterranean'}, {'alias': 'hotdogs', 'title': 'Fast Food'}]",4.0,"{'latitude': 60.188456, 'longitude': 24.9573376}","{'address1': 'Vaasankatu 15', 'address2': 'Vasagatan 15', 'address3': '', 'city': 'Helsinki', 'zip_code': '00500', 'country': 'FI', 'state': '18', 'display_address': ['Vaasankatu 15', 'Vasagatan 15', '00500 Helsinki', 'Finland']}",679.1532426880709,€
aqrNtzWNpW4ZsvBFmK0-GA,Cardemumma,17,"[{'alias': 'cupcakes', 'title': 'Cupcakes'}, {'alias': 'breakfast_brunch', 'title': 'Breakfast & Brunch'}]",3.5,"{'latitude': 60.1865254723598, 'longitude': 24.9518216725883}","{'address1': 'Kaarlenkatu 15', 'address2': '', 'address3': '', 'city': 'Helsinki', 'zip_code': '00510', 'country': 'FI', 'state': '18', 'display_address': ['Kaarlenkatu 15', '00510 Helsinki', 'Finland']}",684.3405940146747,€€
fnylgl5XznrKRMY3yV-ZdQ,Tenho Restobar,2,"[{'alias': 'pizza', 'title': 'Pizza'}, {'alias': 'musicvenues', 'title': 'Music Venues'}, {'alias': 'gastropubs', 'title': 'Gastropubs'}]",4.0,"{'latitude': 60.1872388420184, 'longitude': 24.9548745680127}","{'address1': 'Helsinginkatu 15', 'address2': 'Helsingegatan 15', 'address3': '', 'city': 'Helsinki', 'zip_code': '00500', 'country': 'FI', 'state': '18', 'display_address': ['Helsinginkatu 15', 'Helsingegatan 15', '00500 Helsinki', 'Finland']}",688.0936512329436,
VxdfBLb5oVEKNv8Fgg-50Q,Bali Brunch,2,"[{'alias': 'indonesian', 'title': 'Indonesian'}]",5.0,"{'latitude': 60.1887, 'longitude': 24.9578}","{'address1': 'Vaasankatu 13', 'address2': 'Vasagatan 13', 'address3': None, 'city': 'Helsinki', 'zip_code': '00530', 'country': 'FI', 'state': '01', 'display_address': ['Vaasankatu 13', 'Vasagatan 13', '00530 Helsinki', 'Finland']}",700.45861457044,
QpXlB8RixJOTa548HV8wdQ,Street Gastro,15,"[{'alias': 'foodtrucks', 'title': 'Food Trucks'}, {'alias': 'sandwiches', 'title': 'Sandwiches'}]",4.0,"{'latitude': 60.1884589554812, 'longitude': 24.9578529596329}","{'address1': 'Vaasankatu 13', 'address2': '', 'address3': '', 'city': 'Helsinki', 'zip_code': '00500', 'country': 'FI', 'state': '18', 'display_address': ['Vaasankatu 13', '00500 Helsinki', 'Finland']}",701.089067291395,€
zavTbvdxD0kpVFbeDEO9eg,Capris,5,"[{'alias': 'restaurants', 'title': 'Restaurants'}]",3.0,"{'latitude': 60.1875687, 'longitude': 24.9556408}","{'address1': 'Kustaankatu 2', 'address2': None, 'address3': None, 'city': 'Helsinki', 'zip_code': '00500', 'country': 'FI', 'state': '18', 'display_address': ['Kustaankatu 2', '00500 Helsinki', 'Finland']}",702.1194230832682,
Zg00WUD5l_q8r3jox_dzoA,Kustaa Vaasa,9,"[{'alias': 'bars', 'title': 'Bars'}, {'alias': 'burgers', 'title': 'Burgers'}, {'alias': 'tapasmallplates', 'title': 'Tapas/Small Plates'}]",3.5,"{'latitude': 60.18805, 'longitude': 24.95695}","{'address1': 'Vaasankatu 10', 'address2': 'Vasagatan 10', 'address3': '', 'city': 'Helsinki', 'zip_code': '00500', 'country': 'FI', 'state': '18', 'display_address': ['Vaasankatu 10', 'Vasagatan 10', '00500 Helsinki', 'Finland']}",703.2048209620887,
eaeoATp64j-0CK6ZB8HJIQ,Apollo,4,"[{'alias': 'pizza', 'title': 'Pizza'}, {'alias': 'kebab', 'title': 'Kebab'}]",3.0,"{'latitude': 60.1881905, 'longitude': 24.9574795}","{'address1': 'Vaasankatu 8', 'address2': None, 'address3': None, 'city': 'Helsinki', 'zip_code': '00500', 'country': 'FI', 'state': '18', 'display_address': ['Vaasankatu 8', '00500 Helsinki', 'Finland']}",709.1356031545218,
7aSa77N_MWBCq8Ud-zvs3w,Cella,20,"[{'alias': 'divebars', 'title': 'Dive Bars'}, {'alias': 'comfortfood', 'title': 'Comfort Food'}, {'alias': 'scandinavian', 'title': 'Scandinavian'}]",3.5,"{'latitude': 60.1864395, 'longitude': 24.9538403}","{'address1': 'Fleminginkatu 15', 'address2': None, 'address3': None, 'city': 'Helsinki', 'zip_code': '00500', 'country': 'FI', 'state': '18', 'display_address': ['Fleminginkatu 15', '00500 Helsinki', 'Finland']}",720.6672424170391,€€
Uutj_uYBQxOL5rIHiuakJA,Bud's,1,"[{'alias': 'pizza', 'title': 'Pizza'}]",3.0,"{'latitude': 60.1875305, 'longitude': 24.9563694}","{'address1': 'Helsinginkatu 11', 'address2': None, 'address3': None, 'city': 'Helsinki', 'zip_code': '00500', 'country': 'FI', 'state': '18', 'display_address': ['Helsinginkatu 11', '00500 Helsinki', 'Finland']}",731.8871337457102,
t51U8fMyKKLvrRB23T8BWA,Happy Dragon,4,"[{'alias': 'chinese', 'title': 'Chinese'}]",2.0,"{'latitude': 60.1875305, 'longitude': 24.9563694}","{'address1': 'Helsinginkatu 11', 'address2': '', 'address3': '', 'city': 'Helsinki', 'zip_code': '00500', 'country': 'FI', 'state': '18', 'display_address': ['Helsinginkatu 11', '00500 Helsinki', 'Finland']}",731.8871337457102,€€
wSFrHLe2Ll_q680C88JpMw,Pizzeria Marmaris,3,"[{'alias': 'pizza', 'title': 'Pizza'}, {'alias': 'hotdogs', 'title': 'Fast Food'}, {'alias': 'kebab', 'title': 'Kebab'}]",2.5,"{'latitude': 60.1862106, 'longitude': 24.9538708}","{'address1': 'Fleminginkatu 13', 'address2': None, 'address3': None, 'city': 'Helsinki', 'zip_code': '00500', 'country': 'FI', 'state': '18', 'display_address': ['Fleminginkatu 13', '00500 Helsinki', 'Finland']}",739.4841959729256,
_qgWFTduwCB3HCpqfyB4Tw,Soi soi,17,"[{'alias': 'vegetarian', 'title': 'Vegetarian'}]",4.5,"{'latitude': 60.1884311, 'longitude': 24.9587276}","{'address1': 'Vaasankatu 9', 'address2': '', 'address3': '', 'city': 'Helsinki', 'zip_code': '00500', 'country': 'FI', 'state': '18', 'display_address': ['Vaasankatu 9', '00500 Helsinki', 'Finland']}",741.4897663769231,€
mckCmrDwavOlvLT-EyoG7Q,Cafe Pequeño,3,"[{'alias': 'soup', 'title': 'Soup'}, {'alias': 'coffee', 'title': 'Coffee & Tea'}]",4.0,"{'latitude': 60.1884747, 'longitude': 24.9588095}","{'address1': 'Vaasankatu 11', 'address2': 'Vasagatan 11', 'address3': '', 'city': 'Helsinki', 'zip_code': '00500', 'country': 'FI', 'state': '18', 'display_address': ['Vaasankatu 11', 'Vasagatan 11', '00500 Helsinki', 'Finland']}",742.3183847599671,€
kVTB9xZ8kkOHUTd9gK2h5A,Kallion Pörssi,1,"[{'alias': 'divebars', 'title': 'Dive Bars'}, {'alias': 'restaurants', 'title': 'Restaurants'}]",4.0,"{'latitude': 60.1854286, 'longitude': 24.9463692}","{'address1': 'Alppikatu 17', 'address2': None, 'address3': None, 'city': 'Helsinki', 'zip_code': '00530', 'country': 'FI', 'state': '18', 'display_address': ['Alppikatu 17', '00530 Helsinki', 'Finland']}",750.5197231446708,
I4TbsbW9ICOona8TWKcdVg,Fairytale,3,"[{'alias': 'restaurants', 'title': 'Restaurants'}, {'alias': 'gaybars', 'title': 'Gay Bars'}]",3.0,"{'latitude': 60.187549353796, 'longitude': 24.957480415111}","{'address1': 'Helsinginkatu 7', 'address2': None, 'address3': None, 'city': 'Helsinki', 'zip_code': '00500', 'country': 'FI', 'state': '18', 'display_address': ['Helsinginkatu 7', '00500 Helsinki', 'Finland']}",753.185508185772,
uqEnLGq5YD8gIMaU3KEwfQ,Kirstin Keidas,2,"[{'alias': 'restaurants', 'title': 'Restaurants'}]",3.5,"{'latitude': 60.1854782, 'longitude': 24.9474106}","{'address1': 'Kirsitinkatu 1', 'address2': '', 'address3': '', 'city': 'Helsinki', 'zip_code': '00530', 'country': 'FI', 'state': '18', 'display_address': ['Kirsitinkatu 1', '00530 Helsinki', 'Finland']}",766.7207362955174,
VipWMPXjn23gVb_c6QyW7g,Thai-Asia Take-Away,1,"[{'alias': 'restaurants', 'title': 'Restaurants'}]",4.0,"{'latitude': 60.19841, 'longitude': 24.9410801}","{'address1': 'Ratamestarinkatu 3', 'address2': None, 'address3': None, 'city': 'Helsinki', 'zip_code': '00520', 'country': 'FI', 'state': '18', 'display_address': ['Ratamestarinkatu 3', '00520 Helsinki', 'Finland']}",780.8157994804702,€
sz2JZtU7LVWLG73c6ca2tA,Roots Helsinki,1,"[{'alias': 'yoga', 'title': 'Yoga'}, {'alias': 'cafeteria', 'title': 'Cafeteria'}]",4.0,"{'latitude': 60.1955171, 'longitude': 24.9608107}","{'address1': 'Eurantie 8', 'address2': '', 'address3': None, 'city': 'Helsinki', 'zip_code': '00550', 'country': 'FI', 'state': '01', 'display_address': ['Eurantie 8', '00550 Helsinki', 'Finland']}",795.6274255250249,€€
o7lyg4R010TaailuNAIvmw,Happy Garden,10,"[{'alias': 'chinese', 'title': 'Chinese'}]",4.0,"{'latitude': 60.188549, 'longitude': 24.9603004}","{'address1': 'Kinaporinkatu 2 A', 'address2': None, 'address3': None, 'city': 'Helsinki', 'zip_code': '00500', 'country': 'FI', 'state': '18', 'display_address': ['Kinaporinkatu 2 A', '00500 Helsinki', 'Finland']}",830.7115768806958,€
lnjksftEJhP2d2DIb-YENw,Ton Khaow,1,"[{'alias': 'thai', 'title': 'Thai'}]",5.0,"{'latitude': 60.1873901678806, 'longitude': 24.9591993060961}","{'address1': 'Helsinginkatu 4', 'address2': 'Helsingegatan 4', 'address3': None, 'city': 'Helsinki', 'zip_code': '00500', 'country': 'FI', 'state': '01', 'display_address': ['Helsinginkatu 4', 'Helsingegatan 4', '00500 Helsinki', 'Finland']}",834.4490062820724,
Zj45yOnsxZq8AEXwORiLzQ,Korphai,2,"[{'alias': 'thai', 'title': 'Thai'}]",4.5,"{'latitude': 60.185218237293, 'longitude': 24.9427771995798}","{'address1': 'Kolmas linja 36', 'address2': '', 'address3': '', 'city': 'Helsinki', 'zip_code': '00530', 'country': 'FI', 'state': '18', 'display_address': ['Kolmas linja 36', '00530 Helsinki', 'Finland']}",843.1020951092024,€
-ZgrNTyyxVkcEztJpk6rUA,Cafelito Cafe & Deli,2,"[{'alias': 'coffee', 'title': 'Coffee & Tea'}, {'alias': 'breakfast_brunch', 'title': 'Breakfast & Brunch'}]",4.5,"{'latitude': 60.1870990565341, 'longitude': 24.9590145102328}","{'address1': 'Harjutori 2', 'address2': 'Åstorget 2', 'address3': None, 'city': 'Helsinki', 'zip_code': '00101', 'country': 'FI', 'state': '01', 'display_address': ['Harjutori 2', 'Åstorget 2', '00101 Helsinki', 'Finland']}",848.8093601219464,
HQQjGhbzH9HTmljEaqA46A,Stadin Tähti,7,"[{'alias': 'danceclubs', 'title': 'Dance Clubs'}, {'alias': 'buffets', 'title': 'Buffets'}]",2.0,"{'latitude': 60.1902843756015, 'longitude': 24.9626862337319}","{'address1': 'Mäkelänkatu 2', 'address2': 'Backasgatan 2', 'address3': None, 'city': 'Helsinki', 'zip_code': '00500', 'country': 'FI', 'state': '18', 'display_address': ['Mäkelänkatu 2', 'Backasgatan 2', '00500 Helsinki', 'Finland']}",849.7903103621063,
fO7hml8tsSsclyEIwLFayA,Mimin herkut,1,"[{'alias': 'foodstands', 'title': 'Food Stands'}]",4.0,"{'latitude': 60.1874412, 'longitude': 24.9596879}","{'address1': 'Helsinginkatu 4', 'address2': '', 'address3': '', 'city': 'Helsinki', 'zip_code': '00500', 'country': 'FI', 'state': '18', 'display_address': ['Helsinginkatu 4', '00500 Helsinki', 'Finland']}",851.209661595712,€
9mM9VUR01cXoUpqk8j-xmQ,Bodo,3,"[{'alias': 'ramen', 'title': 'Ramen'}]",3.5,"{'latitude': 60.1852703386453, 'longitude': 24.9417335540056}","{'address1': 'Alppikatu 5', 'address2': '', 'address3': '', 'city': 'Helsinki', 'zip_code': '00101', 'country': 'FI', 'state': '18', 'display_address': ['Alppikatu 5', '00101 Helsinki', 'Finland']}",858.836028929709,€€
FjrSwsKQ8VfAds_anVCgWQ,Salpimienta,2,"[{'alias': 'restaurants', 'title': 'Restaurants'}]",4.0,"{'latitude': 60.1848717, 'longitude': 24.9536304}","{'address1': 'Fleminginkatu 7', 'address2': '', 'address3': '', 'city': 'Helsinki', 'zip_code': '00530', 'country': 'FI', 'state': '18', 'display_address': ['Fleminginkatu 7', '00530 Helsinki', 'Finland']}",868.5038688216466,€€
csbWWSD0Hmwfc9PizpmlEQ,Sawat Dee,1,"[{'alias': 'thai', 'title': 'Thai'}]",3.0,"{'latitude': 60.1849289, 'longitude': 24.9418507}","{'address1': 'Alppikatu 5', 'address2': '', 'address3': '', 'city': 'Helsinki', 'zip_code': '00530', 'country': 'FI', 'state': '18', 'display_address': ['Alppikatu 5', '00530 Helsinki', 'Finland']}",877.409479672444,
cKb0jGQxNslmLLBvWm94eA,Boatip,1,"[{'alias': 'thai', 'title': 'Thai'}]",4.0,"{'latitude': 60.1849289, 'longitude': 24.9418507}","{'address1': 'Alppikatu 5', 'address2': '', 'address3': '', 'city': 'Helsinki', 'zip_code': '00530', 'country': 'FI', 'state': '18', 'display_address': ['Alppikatu 5', '00530 Helsinki', 'Finland']}",877.8481319135951,€
JQSjQgY71QQRkqGGYh02_w,Kahvila Päijänne,1,"[{'alias': 'cafeteria', 'title': 'Cafeteria'}, {'alias': 'coffee', 'title': 'Coffee & Tea'}]",5.0,"{'latitude': 60.19232, 'longitude': 24.9638}","{'address1': 'Päijänteentie 1', 'address2': '', 'address3': None, 'city': 'Helsinki', 'zip_code': '00550', 'country': 'FI', 'state': '', 'display_address': ['Päijänteentie 1', '00550 Helsinki', 'Finland']}",883.0983488270672,
52qrPcahYm7ytTEXeO2_ww,William K.,7,"[{'alias': 'bars', 'title': 'Bars'}, {'alias': 'gastropubs', 'title': 'Gastropubs'}]",3.5,"{'latitude': 60.1875083689417, 'longitude': 24.9609177429916}","{'address1': 'Helsinginkatu 2', 'address2': None, 'address3': None, 'city': 'Helsinki', 'zip_code': '00500', 'country': 'FI', 'state': '18', 'display_address': ['Helsinginkatu 2', '00500 Helsinki', 'Finland']}",899.8470771832551,€€
oDt9XlURSNmrYNnm_zOhYw,Westminster,4,"[{'alias': 'pizza', 'title': 'Pizza'}, {'alias': 'pubs', 'title': 'Pubs'}]",3.0,"{'latitude': 60.1965408, 'longitude': 24.9618301}","{'address1': 'Hämeentie 94', 'address2': '', 'address3': '', 'city': 'Helsinki', 'zip_code': '00550', 'country': 'FI', 'state': '18', 'display_address': ['Hämeentie 94', '00550 Helsinki', 'Finland']}",913.2078211215845,€
ujmuuror9wMiK3xuWkAeew,Sivuraide,1,"[{'alias': 'pizza', 'title': 'Pizza'}]",4.0,"{'latitude': 60.1844215, 'longitude': 24.9520493}","{'address1': 'Kaarlenkatu 1', 'address2': '', 'address3': '', 'city': 'Helsinki', 'zip_code': '00530', 'country': 'FI', 'state': '18', 'display_address': ['Kaarlenkatu 1', '00530 Helsinki', 'Finland']}",919.3597148075838,
r3ETqpvFZht20FzF2oUV7g,Toveri,8,"[{'alias': 'wine_bars', 'title': 'Wine Bars'}, {'alias': 'lounges', 'title': 'Lounges'}, {'alias': 'tapasmallplates', 'title': 'Tapas/Small Plates'}]",4.5,"{'latitude': 60.1840515, 'longitude': 24.9457092}","{'address1': 'Castréninkatu 3', 'address2': None, 'address3': None, 'city': 'Helsinki', 'zip_code': '00530', 'country': 'FI', 'state': '18', 'display_address': ['Castréninkatu 3', '00530 Helsinki', 'Finland']}",919.7520963175775,€€
FI4EBOrwiYu_ydsA6SmBHw,Ravintola Pizzeria Vivi,3,"[{'alias': 'pizza', 'title': 'Pizza'}]",1.5,"{'latitude': 60.1843796, 'longitude': 24.9449692}","{'address1': 'Castréninkatu 10', 'address2': None, 'address3': None, 'city': 'Helsinki', 'zip_code': '00530', 'country': 'FI', 'state': '18', 'display_address': ['Castréninkatu 10', '00530 Helsinki', 'Finland']}",926.5857348998513,
bUpKXF3no56V6sbLfWyftw,Mala,4,"[{'alias': 'sushi', 'title': 'Sushi Bars'}, {'alias': 'chinese', 'title': 'Chinese'}]",3.5,"{'latitude': 60.1990395, 'longitude': 24.937851}","{'address1': 'Junailijankuja 5', 'address2': '(käyntiosoite Opastinsilta 10)', 'address3': '', 'city': 'Helsinki', 'zip_code': '00520', 'country': 'FI', 'state': '18', 'display_address': ['Junailijankuja 5', '(käyntiosoite Opastinsilta 10)', '00520 Helsinki', 'Finland']}",926.992859026357,€€
pjoB9TMXo-QJc_yCB6ha5w,Bar Loosister,11,"[{'alias': 'bars', 'title': 'Bars'}, {'alias': 'restaurants', 'title': 'Restaurants'}]",3.5,"{'latitude': 60.187098, 'longitude': 24.9611024}","{'address1': 'Hämeentie 50', 'address2': '', 'address3': '', 'city': 'Helsinki', 'zip_code': '00500', 'country': 'FI', 'state': '18', 'display_address': ['Hämeentie 50', '00500 Helsinki', 'Finland']}",935.8775337420575,€€
pnyFWK8d56nMbrF2ijcxBw,Sivuraide,6,"[{'alias': 'hotdogs', 'title': 'Fast Food'}, {'alias': 'pizza', 'title': 'Pizza'}]",3.0,"{'latitude': 60.1880302, 'longitude': 24.9619598}","{'address1': 'Hämeentie 54', 'address2': None, 'address3': None, 'city': 'Helsinki', 'zip_code': '00500', 'country': 'FI', 'state': '18', 'display_address': ['Hämeentie 54', '00500 Helsinki', 'Finland']}",938.0329013173122,€
U_WredN4wVyEK4Dctq_9wQ,Ravintola Hermannin Kukko,6,"[{'alias': 'bars', 'title': 'Bars'}, {'alias': 'restaurants', 'title': 'Restaurants'}]",2.0,"{'latitude': 60.1957703, 'longitude': 24.96348}","{'address1': 'Hämeentie 81-83', 'address2': None, 'address3': None, 'city': 'Helsinki', 'zip_code': '00550', 'country': 'FI', 'state': '18', 'display_address': ['Hämeentie 81-83', '00550 Helsinki', 'Finland']}",937.8739463944582,
gUVyP-kBcZyxuUwHH_P2-A,Georgian House,3,"[{'alias': 'georgian', 'title': 'Georgian'}]",2.5,"{'latitude': 60.1886700707486, 'longitude': 24.9634572896143}","{'address1': 'Hämeentie 62', 'address2': 'Tavastvägen 62', 'address3': '', 'city': 'Helsinki', 'zip_code': '00500', 'country': 'FI', 'state': '01', 'display_address': ['Hämeentie 62', 'Tavastvägen 62', '00500 Helsinki', 'Finland']}",953.3336115935542,€€
_p6mQCdkULhD5rx2mSwRUw,Cafe Del Mar,10,"[{'alias': 'pizza', 'title': 'Pizza'}, {'alias': 'kebab', 'title': 'Kebab'}]",3.5,"{'latitude': 60.1837311, 'longitude': 24.9511299}","{'address1': 'Viides linja 16', 'address2': None, 'address3': None, 'city': 'Helsinki', 'zip_code': '00530', 'country': 'FI', 'state': '18', 'display_address': ['Viides linja 16', '00530 Helsinki', 'Finland']}",956.5422093149961,€
M39v3dBo6Ju4nXPAwVDBLw,Kolme Kaisaa,8,"[{'alias': 'divebars', 'title': 'Dive Bars'}, {'alias': 'restaurants', 'title': 'Restaurants'}]",3.0,"{'latitude': 60.1874008, 'longitude': 24.9625206}","{'address1': 'Hämeentie 29', 'address2': None, 'address3': None, 'city': 'Helsinki', 'zip_code': '00500', 'country': 'FI', 'state': '18', 'display_address': ['Hämeentie 29', '00500 Helsinki', 'Finland']}",959.1702243458557,
VpUmEAXsRaVKfObaURh5MA,Palmeri,3,"[{'alias': 'pizza', 'title': 'Pizza'}, {'alias': 'kebab', 'title': 'Kebab'}]",2.5,"{'latitude': 60.188591, 'longitude': 24.9643402}","{'address1': 'Hämeentie 35 A', 'address2': None, 'address3': None, 'city': 'Helsinki', 'zip_code': '00500', 'country': 'FI', 'state': '18', 'display_address': ['Hämeentie 35 A', '00500 Helsinki', 'Finland']}",983.0436449354505,€€
loetC8iJGZ1pwCob_EIveg,Mäkikupla,16,"[{'alias': 'bars', 'title': 'Bars'}, {'alias': 'pizza', 'title': 'Pizza'}]",4.0,"{'latitude': 60.1859547635991, 'longitude': 24.9602182141077}","{'address1': 'Torkkelinkatu 2 B', 'address2': 'Torkelsgatan 2 B', 'address3': None, 'city': 'Helsinki', 'zip_code': '00500', 'country': 'FI', 'state': '18', 'display_address': ['Torkkelinkatu 2 B', 'Torkelsgatan 2 B', '00500 Helsinki', 'Finland']}",985.8225770225546,€
LIe8UQH3GFl-yuNmgVJkeQ,Bar Bronco,2,"[{'alias': 'restaurants', 'title': 'Restaurants'}, {'alias': 'bars', 'title': 'Bars'}]",4.0,"{'latitude': 60.1866417, 'longitude': 24.9618797}","{'address1': 'Hämeentie 23', 'address2': None, 'address3': None, 'city': 'Helsinki', 'zip_code': '00500', 'country': 'FI', 'state': '18', 'display_address': ['Hämeentie 23', '00500 Helsinki', 'Finland']}",989.0862345685149,
ol7H6DjnX2m7kRa16ROyLg,Piccolo Pizza,3,"[{'alias': 'pizza', 'title': 'Pizza'}, {'alias': 'turkish', 'title': 'Turkish'}]",3.0,"{'latitude': 60.1986809, 'longitude': 24.9335194}","{'address1': 'Ratapihantie 6', 'address2': '', 'address3': '', 'city': 'Helsinki', 'zip_code': '00520', 'country': 'FI', 'state': '18', 'display_address': ['Ratapihantie 6', '00520 Helsinki', 'Finland']}",995.9960763101532,€
V9A7n-FiRSnimRHqFoOwyA,Bergga,9,"[{'alias': 'coffee', 'title': 'Coffee & Tea'}]",3.5,"{'latitude': 60.1836326, 'longitude': 24.9520357}","{'address1': 'Viides linja 14', 'address2': '', 'address3': '', 'city': 'Helsinki', 'zip_code': '00530', 'country': 'FI', 'state': '18', 'display_address': ['Viides linja 14', '00530 Helsinki', 'Finland']}",997.2810474981736,€
fpRJG0KGeDQzBzaRtP8H3A,Madame Kurvi,12,"[{'alias': 'italian', 'title': 'Italian'}]",3.0,"{'latitude': 60.18759, 'longitude': 24.96348}","{'address1': 'Hämeentie 31', 'address2': None, 'address3': None, 'city': 'Helsinki', 'zip_code': '00500', 'country': 'FI', 'state': '18', 'display_address': ['Hämeentie 31', '00500 Helsinki', 'Finland']}",1002.8506695708752,€€
DUc9-q-bEMSm3IhGaOY5jg,Codle,2,"[{'alias': 'vietnamese', 'title': 'Vietnamese'}]",4.0,"{'latitude': 60.18635, 'longitude': 24.96195}","{'address1': 'Hämeentie 21', 'address2': '', 'address3': '', 'city': 'Helsinki', 'zip_code': '00500', 'country': 'FI', 'state': '18', 'display_address': ['Hämeentie 21', '00500 Helsinki', 'Finland']}",1008.2203470898215,
n4HwwNP2KcqrYtzyQ3_1uw,Nilgiri,3,"[{'alias': 'himalayan', 'title': 'Himalayan/Nepalese'}]",3.5,"{'latitude': 60.1883969496794, 'longitude': 24.9645128846169}","{'address1': 'Kulmavuorenkatu 4', 'address2': '', 'address3': '', 'city': 'Helsinki', 'zip_code': '00500', 'country': 'FI', 'state': '18', 'display_address': ['Kulmavuorenkatu 4', '00500 Helsinki', 'Finland']}",1019.0800765991605,
SzAbM3J3nkxaxLumRVe56A,Social Burgerjoint,4,"[{'alias': 'burgers', 'title': 'Burgers'}]",4.5,"{'latitude': 60.1884023, 'longitude': 24.9645183}","{'address1': 'Kulmavuorenkatu 4', 'address2': '', 'address3': None, 'city': 'Helsinki', 'zip_code': '00500', 'country': 'FI', 'state': '01', 'display_address': ['Kulmavuorenkatu 4', '00500 Helsinki', 'Finland']}",1019.0927607625256,
eTHz_L_FaLBTUKLRSYV3BQ,Loung3,5,"[{'alias': 'bars', 'title': 'Bars'}, {'alias': 'scandinavian', 'title': 'Scandinavian'}]",4.0,"{'latitude': 60.1829987, 'longitude': 24.9468899}","{'address1': 'Kolmas linja 18', 'address2': '', 'address3': '', 'city': 'Helsinki', 'zip_code': '00530', 'country': 'FI', 'state': '18', 'display_address': ['Kolmas linja 18', '00530 Helsinki', 'Finland']}",1026.7842453529638,€€
nCMWz_-heL8fic1vG92qOg,Sandro,63,"[{'alias': 'breakfast_brunch', 'title': 'Breakfast & Brunch'}, {'alias': 'moroccan', 'title': 'Moroccan'}, {'alias': 'mideastern', 'title': 'Middle Eastern'}]",4.5,"{'latitude': 60.18313, 'longitude': 24.94839}","{'address1': 'Kolmas linja 17', 'address2': 'Tredje linjen 17', 'address3': '', 'city': 'Helsinki', 'zip_code': '00530', 'country': 'FI', 'state': '18', 'display_address': ['Kolmas linja 17', 'Tredje linjen 17', '00530 Helsinki', 'Finland']}",1031.4821268721423,€€€
nmSFLY2-ktKDlY0TI7SKsA,Bambu,4,"[{'alias': 'asianfusion', 'title': 'Asian Fusion'}, {'alias': 'bars', 'title': 'Bars'}, {'alias': 'hotels', 'title': 'Hotels'}]",3.0,"{'latitude': 60.1859767940288, 'longitude': 24.9615022647919}","{'address1': 'Hämeentie 19', 'address2': '', 'address3': '', 'city': 'Helsinki', 'zip_code': '00500', 'country': 'FI', 'state': '18', 'display_address': ['Hämeentie 19', '00500 Helsinki', 'Finland']}",1034.4741233034392,€€
PAHvaHbZ7LgM9808-J0-mw,Kanelisaari,1,"[{'alias': 'pizza', 'title': 'Pizza'}]",2.0,"{'latitude': 60.188549, 'longitude': 24.9648609}","{'address1': 'Kulmavuorenkatu 4', 'address2': '', 'address3': '', 'city': 'Helsinki', 'zip_code': '00500', 'country': 'FI', 'state': '18', 'display_address': ['Kulmavuorenkatu 4', '00500 Helsinki', 'Finland']}",1039.633384229128,
4flzlJo0xvzjzfXiCqJ0zA,Kombo,8,"[{'alias': 'tapasmallplates', 'title': 'Tapas/Small Plates'}, {'alias': 'spanish', 'title': 'Spanish'}, {'alias': 'wine_bars', 'title': 'Wine Bars'}]",4.0,"{'latitude': 60.1883408, 'longitude': 24.964871}","{'address1': 'Kulmavuorenkatu 2', 'address2': '', 'address3': '', 'city': 'Helsinki', 'zip_code': '00500', 'country': 'FI', 'state': '18', 'display_address': ['Kulmavuorenkatu 2', '00500 Helsinki', 'Finland']}",1039.633384229128,
elb2gMXmiIGISeCYWMgEmA,Pinto B'staurant,6,"[{'alias': 'thai', 'title': 'Thai'}]",4.5,"{'latitude': 60.1876219771893, 'longitude': 24.9641126468138}","{'address1': 'Vilhonvuorenkatu 3', 'address2': '', 'address3': '', 'city': 'Helsinki', 'zip_code': '00500', 'country': 'FI', 'state': '18', 'display_address': ['Vilhonvuorenkatu 3', '00500 Helsinki', 'Finland']}",1040.0864148553692,€
2UqZIzWmOKUwC-_wmpgi3g,Grillsson,2,"[{'alias': 'steak', 'title': 'Steakhouses'}]",3.0,"{'latitude': 60.1858071, 'longitude': 24.9614414}","{'address1': 'Hämeentie 19', 'address2': '', 'address3': '', 'city': 'Helsinki', 'zip_code': '00500', 'country': 'FI', 'state': '18', 'display_address': ['Hämeentie 19', '00500 Helsinki', 'Finland']}",1045.100941528444,€€€
iNRLGd1WvIsUeWXEeN-0_Q,Cafe II-Linja 23,1,"[{'alias': 'restaurants', 'title': 'Restaurants'}]",5.0,"{'latitude': 60.1832085, 'longitude': 24.9451809}","{'address1': 'Toinen Linja 23', 'address2': None, 'address3': None, 'city': 'Helsinki', 'zip_code': '00530', 'country': 'FI', 'state': '18', 'display_address': ['Toinen Linja 23', '00530 Helsinki', 'Finland']}",1050.575962214916,
vpx5-rhP4r5Lfxu_WVLjtA,Lie Mi,4,"[{'alias': 'vietnamese', 'title': 'Vietnamese'}]",5.0,"{'latitude': 60.1857213, 'longitude': 24.961577}","{'address1': 'Hämeentie 19', 'address2': '', 'address3': '', 'city': 'Helsinki', 'zip_code': '00500', 'country': 'FI', 'state': '18', 'display_address': ['Hämeentie 19', '00500 Helsinki', 'Finland']}",1057.128503663186,€€
FAQDRcbV3nWg-jN9z3c_TQ,Lovinghut Helsinki,1,"[{'alias': 'vegan', 'title': 'Vegan'}, {'alias': 'chinese', 'title': 'Chinese'}]",3.0,"{'latitude': 60.1828249899793, 'longitude': 24.947802897916}","{'address1': 'Kolmas linja 17', 'address2': '', 'address3': '', 'city': 'Helsinki', 'zip_code': '00530', 'country': 'FI', 'state': '18', 'display_address': ['Kolmas linja 17', '00530 Helsinki', 'Finland']}",1060.420191281999,
7FgyPfJcqoOx7t5wTPzhJg,Thai Street Food,2,"[{'alias': 'thai', 'title': 'Thai'}]",4.5,"{'latitude': 60.1875324615117, 'longitude': 24.9644860184184}","{'address1': 'Vilhonvuorenkatu 5', 'address2': '', 'address3': None, 'city': 'Helsinki', 'zip_code': '00101', 'country': 'FI', 'state': '01', 'display_address': ['Vilhonvuorenkatu 5', '00101 Helsinki', 'Finland']}",1062.9261611873203,
QeIVR0iGFTqX0j7tp-d3jQ,IPI Kulmakuppila,7,"[{'alias': 'coffee', 'title': 'Coffee & Tea'}, {'alias': 'breakfast_brunch', 'title': 'Breakfast & Brunch'}]",4.0,"{'latitude': 60.1832450857038, 'longitude': 24.953817967325}","{'address1': 'Porthaninkatu 13', 'address2': 'Porthansgatan 13', 'address3': '', 'city': 'Helsinki', 'zip_code': '00530', 'country': 'FI', 'state': '18', 'display_address': ['Porthaninkatu 13', 'Porthansgatan 13', '00530 Helsinki', 'Finland']}",1065.3297536253408,€€
upHQntq3eUs69_MsgCYsww,Hermannin Pizza Kebab,5,"[{'alias': 'turkish', 'title': 'Turkish'}, {'alias': 'pizza', 'title': 'Pizza'}]",3.0,"{'latitude': 60.1948586, 'longitude': 24.9664707}","{'address1': 'Vellamonkatu 10', 'address2': None, 'address3': None, 'city': 'Helsinki', 'zip_code': '00550', 'country': 'FI', 'state': '18', 'display_address': ['Vellamonkatu 10', '00550 Helsinki', 'Finland']}",1067.4486213553125,€€
4v97ftjq3LtSGvZyCPtWHw,Subway,1,"[{'alias': 'sandwiches', 'title': 'Sandwiches'}, {'alias': 'hotdogs', 'title': 'Fast Food'}]",3.0,"{'latitude': 60.1988326640548, 'longitude': 24.9335390047546}","{'address1': 'Pasilan asema', 'address2': 'Ratapihantie 6', 'address3': '', 'city': 'Helsinki', 'zip_code': '00520', 'country': 'FI', 'state': '18', 'display_address': ['Pasilan asema', 'Ratapihantie 6', '00520 Helsinki', 'Finland']}",1070.9680290685799,€
Znb5wma_KrljWBNIWWWxpQ,Kotipizza,2,"[{'alias': 'pizza', 'title': 'Pizza'}]",3.0,"{'latitude': 60.1829414, 'longitude': 24.9532909}","{'address1': 'Porthaninkatu 11', 'address2': None, 'address3': None, 'city': 'Helsinki', 'zip_code': '00530', 'country': 'FI', 'state': '18', 'display_address': ['Porthaninkatu 11', '00530 Helsinki', 'Finland']}",1072.4918203750137,
eQ-hh_3xoTJ5rwggsySWRw,Kolo,2,"[{'alias': 'vegan', 'title': 'Vegan'}, {'alias': 'arts', 'title': 'Arts & Entertainment'}, {'alias': 'coffee', 'title': 'Coffee & Tea'}]",5.0,"{'latitude': 60.18396, 'longitude': 24.95742}","{'address1': 'Pengerkatu 9', 'address2': 'Terrassgatan 9', 'address3': None, 'city': 'Helsinki', 'zip_code': '00530', 'country': 'FI', 'state': '01', 'display_address': ['Pengerkatu 9', 'Terrassgatan 9', '00530 Helsinki', 'Finland']}",1076.4162817818558,
rRwh-BgRwHm7LShw7zL3yQ,Lemon Grass,23,"[{'alias': 'thai', 'title': 'Thai'}]",4.0,"{'latitude': 60.1827149210467, 'longitude': 24.9496507644653}","{'address1': 'Kolmas linja 12', 'address2': None, 'address3': None, 'city': 'Helsinki', 'zip_code': '00530', 'country': 'FI', 'state': '18', 'display_address': ['Kolmas linja 12', '00530 Helsinki', 'Finland']}",1077.0493463656105,€€
wdTGk17inBTCjltwyW1OFA,Las Vegas,8,"[{'alias': 'restaurants', 'title': 'Restaurants'}]",2.5,"{'latitude': 60.1829414, 'longitude': 24.9532909}","{'address1': 'Viides linja 8', 'address2': None, 'address3': None, 'city': 'Helsinki', 'zip_code': '00530', 'country': 'FI', 'state': '18', 'display_address': ['Viides linja 8', '00530 Helsinki', 'Finland']}",1086.4916087004096,€€
hLqYiyNAYpSne8HjGBuG2g,Du Dii,9,"[{'alias': 'thai', 'title': 'Thai'}]",3.5,"{'latitude': 60.1831589, 'longitude': 24.9543896}","{'address1': 'Viides linja 7', 'address2': '', 'address3': '', 'city': 'Helsinki', 'zip_code': '00530', 'country': 'FI', 'state': '18', 'display_address': ['Viides linja 7', '00530 Helsinki', 'Finland']}",1086.2993959670043,€€
zB6mUvGHFFt4ildOBmdcfw,Ravintola Kurjenlento,4,"[{'alias': 'restaurants', 'title': 'Restaurants'}, {'alias': 'pubs', 'title': 'Pubs'}]",2.0,"{'latitude': 60.1859398, 'longitude': 24.9538193}","{'address1': 'Fleminginkatu 11 B', 'address2': None, 'address3': None, 'city': 'Helsinki', 'zip_code': '00500', 'country': 'FI', 'state': '18', 'display_address': ['Fleminginkatu 11 B', '00500 Helsinki', 'Finland']}",1087.0641980417424,
7dfXWaiwLZ-INCblxFNP3Q,Luckiefun's Restaurant,2,"[{'alias': 'sushi', 'title': 'Sushi Bars'}]",3.0,"{'latitude': 60.1868012, 'longitude': 24.9659969}","{'address1': 'Vilhonvuorenkatu 7-9', 'address2': 'Vilhelmbergsgatan 7-9', 'address3': '', 'city': 'Helsinki', 'zip_code': '00500', 'country': 'FI', 'state': '18', 'display_address': ['Vilhonvuorenkatu 7-9', 'Vilhelmbergsgatan 7-9', '00500 Helsinki', 'Finland']}",1111.683226993571,
UalDfnxcLv630GDKfDi7cQ,Om'pu,7,"[{'alias': 'pubs', 'title': 'Pubs'}, {'alias': 'dancerestaurants', 'title': 'Dance Restaurants'}, {'alias': 'restaurants', 'title': 'Restaurants'}]",3.5,"{'latitude': 60.1825409, 'longitude': 24.9499397}","{'address1': 'Siltasaarenkatu 15', 'address2': None, 'address3': None, 'city': 'Helsinki', 'zip_code': '00530', 'country': 'FI', 'state': '18', 'display_address': ['Siltasaarenkatu 15', '00530 Helsinki', 'Finland']}",1113.1919802386788,€€
HBqrkrGmEvPegcSsmos4mg,Onda,9,"[{'alias': 'mediterranean', 'title': 'Mediterranean'}, {'alias': 'latin', 'title': 'Latin American'}, {'alias': 'peruvian', 'title': 'Peruvian'}]",4.5,"{'latitude': 60.184314945045, 'longitude': 24.9601788186547}","{'address1': 'Hämeentie 13', 'address2': 'Tavastvägen 13', 'address3': '', 'city': 'Helsinki', 'zip_code': '00530', 'country': 'FI', 'state': '18', 'display_address': ['Hämeentie 13', 'Tavastvägen 13', '00530 Helsinki', 'Finland']}",1123.3648581412106,€€
zRdj1uykLWZfLNVM4aWc9A,Sushi Forest,1,"[{'alias': 'sushi', 'title': 'Sushi Bars'}]",4.0,"{'latitude': 60.1837041168959, 'longitude': 24.9585582664869}","{'address1': 'Hämeentie 32', 'address2': 'Tavastvägen 32', 'address3': '', 'city': 'Helsinki', 'zip_code': '00530', 'country': 'FI', 'state': '18', 'display_address': ['Hämeentie 32', 'Tavastvägen 32', '00530 Helsinki', 'Finland']}",1128.9075277826316,€
rtVW8xetGx6-PbMaCgXdDQ,SOUP Kallio,1,"[{'alias': 'vegetarian', 'title': 'Vegetarian'}, {'alias': 'vegan', 'title': 'Vegan'}]",5.0,"{'latitude': 60.1870364343619, 'longitude': 24.9655186157729}","{'address1': 'Vilhonvuorenkatu 7', 'address2': 'Vilhelmbergsgatan 7', 'address3': None, 'city': 'Helsinki', 'zip_code': '00500', 'country': 'FI', 'state': '01', 'display_address': ['Vilhonvuorenkatu 7', 'Vilhelmbergsgatan 7', '00500 Helsinki', 'Finland']}",1140.2109056090344,
Mo9wzGvmymT-XwoWX-jetg,Subway,2,"[{'alias': 'sandwiches', 'title': 'Sandwiches'}, {'alias': 'hotdogs', 'title': 'Fast Food'}]",2.5,"{'latitude': 60.1821098, 'longitude': 24.9522495}","{'address1': 'Porthaninkatu 7', 'address2': '', 'address3': '', 'city': 'Helsinki', 'zip_code': '00530', 'country': 'FI', 'state': '18', 'display_address': ['Porthaninkatu 7', '00530 Helsinki', 'Finland']}",1140.2405729873901,€
UJ-68SUiQf-WboqFp0ypXA,Kolmon3n,11,"[{'alias': 'burgers', 'title': 'Burgers'}, {'alias': 'scandinavian', 'title': 'Scandinavian'}]",4.5,"{'latitude': 60.1821012, 'longitude': 24.9501554}","{'address1': 'Kolmas linja 11', 'address2': 'Tredje linjen 11', 'address3': '', 'city': 'Helsinki', 'zip_code': '00530', 'country': 'FI', 'state': '18', 'display_address': ['Kolmas linja 11', 'Tredje linjen 11', '00530 Helsinki', 'Finland']}",1147.7362882207153,€€
_Eo7YoonN01a50NKH9t_DQ,Heipan Herkkulounas,1,"[{'alias': 'restaurants', 'title': 'Restaurants'}]",3.0,"{'latitude': 60.1823196, 'longitude': 24.9503498}","{'address1': 'Kolmas Linja 11', 'address2': None, 'address3': None, 'city': 'Helsinki', 'zip_code': '00530', 'country': 'FI', 'state': '18', 'display_address': ['Kolmas Linja 11', '00530 Helsinki', 'Finland']}",1147.7362882207153,
AYL4yTiUHAgzC6jk0_-Bcg,Siltanen,17,"[{'alias': 'bars', 'title': 'Bars'}, {'alias': 'breakfast_brunch', 'title': 'Breakfast & Brunch'}]",3.5,"{'latitude': 60.184269, 'longitude': 24.9600296}","{'address1': 'Hämeentie 13 B', 'address2': '', 'address3': '', 'city': 'Helsinki', 'zip_code': '00530', 'country': 'FI', 'state': '18', 'display_address': ['Hämeentie 13 B', '00530 Helsinki', 'Finland']}",1157.3257049263725,€€
Xn3_GvXypyzw1GgPOkK9wA,Ken Yau,8,"[{'alias': 'chinese', 'title': 'Chinese'}]",2.5,"{'latitude': 60.1837311, 'longitude': 24.9511299}","{'address1': 'Viides linja 16', 'address2': '', 'address3': '', 'city': 'Helsinki', 'zip_code': '00530', 'country': 'FI', 'state': '18', 'display_address': ['Viides linja 16', '00530 Helsinki', 'Finland']}",1157.9753199373247,€€
AplYjQ3RToHrdgK6cuPkew,Amica Ravintolat Akavatalo,1,"[{'alias': 'restaurants', 'title': 'Restaurants'}]",3.0,"{'latitude': 60.2009811, 'longitude': 24.9369907}","{'address1': 'Rautatieläisenkatu 6', 'address2': None, 'address3': None, 'city': 'Helsinki', 'zip_code': '00520', 'country': 'FI', 'state': '18', 'display_address': ['Rautatieläisenkatu 6', '00520 Helsinki', 'Finland']}",1161.5942056645406,
IyVq_LtmW-Fo9Rubic74gA,Rice Garden,2,"[{'alias': 'sushi', 'title': 'Sushi Bars'}]",4.5,"{'latitude': 60.1819546565631, 'longitude': 24.9507822770686}","{'address1': 'Porthaninkatu 4', 'address2': '', 'address3': '', 'city': 'Helsinki', 'zip_code': '00530', 'country': 'FI', 'state': '18', 'display_address': ['Porthaninkatu 4', '00530 Helsinki', 'Finland']}",1168.1703809435242,€€
QEQweAPljZNH8rBgKYVJog,Fafa's,11,"[{'alias': 'mideastern', 'title': 'Middle Eastern'}]",4.5,"{'latitude': 60.1870973757324, 'longitude': 24.9662411326682}","{'address1': 'Vilhonvuorenkatu 10', 'address2': 'Vilhelmbergsgatan 10', 'address3': '', 'city': 'Helsinki', 'zip_code': '00500', 'country': 'FI', 'state': '18', 'display_address': ['Vilhonvuorenkatu 10', 'Vilhelmbergsgatan 10', '00500 Helsinki', 'Finland']}",1171.123482675401,€
4c5R8YFxj1EJNU2sH1BZ8A,Ravintola Tanner,2,"[{'alias': 'restaurants', 'title': 'Restaurants'}]",4.5,"{'latitude': 60.1832526388696, 'longitude': 24.9590720053514}","{'address1': 'Hämeentie 11', 'address2': '', 'address3': None, 'city': 'Helsinki', 'zip_code': '00530', 'country': 'FI', 'state': '', 'display_address': ['Hämeentie 11', '00530 Helsinki', 'Finland']}",1186.5550145506877,
K1bcxLf5QsbT_OgvIlI-nw,Olohuone,1,"[{'alias': 'coffee', 'title': 'Coffee & Tea'}, {'alias': 'bistros', 'title': 'Bistros'}]",2.0,"{'latitude': 60.2017088847703, 'longitude': 24.9374893790779}","{'address1': 'Messukeskus', 'address2': '', 'address3': None, 'city': 'Helsinki', 'zip_code': '00101', 'country': 'FI', 'state': '18', 'display_address': ['Messukeskus', '00101 Helsinki', 'Finland']}",1187.7661014391501,
HnmxriWWSwDa1QyYQcQKIg,Hesburger,1,"[{'alias': 'burgers', 'title': 'Burgers'}, {'alias': 'hotdogs', 'title': 'Fast Food'}]",1.0,"{'latitude': 60.2019997, 'longitude': 24.9367294}","{'address1': 'Messukeskus', 'address2': 'Messuaukio 1', 'address3': None, 'city': 'Helsinki', 'zip_code': '00520', 'country': 'FI', 'state': '18', 'display_address': ['Messukeskus', 'Messuaukio 1', '00520 Helsinki', 'Finland']}",1189.7707863778369,
-qe88mi_9_APQ_dWIW53Eg,South China,5,"[{'alias': 'chinese', 'title': 'Chinese'}]",3.0,"{'latitude': 60.2006607, 'longitude': 24.9346504}","{'address1': 'Ratapihantie 11', 'address2': None, 'address3': None, 'city': 'Helsinki', 'zip_code': '00520', 'country': 'FI', 'state': '18', 'display_address': ['Ratapihantie 11', '00520 Helsinki', 'Finland']}",1209.9574562385826,
sBOwJFhRaXHjBGpe2wTh9A,Food House,1,"[{'alias': 'chinese', 'title': 'Chinese'}]",4.0,"{'latitude': 60.19694, 'longitude': 24.92787}","{'address1': 'Esterinportti 2 B', 'address2': 'Estersporten 2 B', 'address3': '', 'city': 'Helsinki', 'zip_code': '00240', 'country': 'FI', 'state': '18', 'display_address': ['Esterinportti 2 B', 'Estersporten 2 B', '00240 Helsinki', 'Finland']}",1214.2380509444683,
qxXTxqUB9EYJTT-b6HCsaA,Silvoplee,23,"[{'alias': 'vegetarian', 'title': 'Vegetarian'}, {'alias': 'juicebars', 'title': 'Juice Bars & Smoothies'}]",4.5,"{'latitude': 60.1814518638294, 'longitude': 24.9492035894427}","{'address1': 'Toinen linja 7', 'address2': 'Andra linjen 7', 'address3': None, 'city': 'Helsinki', 'zip_code': '00530', 'country': 'FI', 'state': '18', 'display_address': ['Toinen linja 7', 'Andra linjen 7', '00530 Helsinki', 'Finland']}",1215.261006647269,€€
wEfhWspW251zufsP2s3h0w,Chalupa,4,"[{'alias': 'mexican', 'title': 'Mexican'}]",3.5,"{'latitude': 60.18147, 'longitude': 24.95085}","{'address1': 'Porthaninkatu 3', 'address2': '', 'address3': '', 'city': 'Helsinki', 'zip_code': '00530', 'country': 'FI', 'state': '18', 'display_address': ['Porthaninkatu 3', '00530 Helsinki', 'Finland']}",1215.9322420129815,€
zwpDpzFtilCs7n-JQFvsvA,Bombay Express,1,"[{'alias': 'indpak', 'title': 'Indian'}]",3.0,"{'latitude': 60.1819992, 'longitude': 24.9545403}","{'address1': 'Hämeentie 16', 'address2': '', 'address3': '', 'city': 'Helsinki', 'zip_code': '00530', 'country': 'FI', 'state': '18', 'display_address': ['Hämeentie 16', '00530 Helsinki', 'Finland']}",1228.8691887609743,
QdyGHNu6Q50Vh4plK99lHQ,Jamaican Mamas,1,"[{'alias': 'cajun', 'title': 'Cajun/Creole'}]",3.0,"{'latitude': 60.1818862, 'longitude': 24.9549752}","{'address1': 'Vilhonvuorenkatu 5 A', 'address2': '', 'address3': '', 'city': 'Helsinki', 'zip_code': '00530', 'country': 'FI', 'state': '18', 'display_address': ['Vilhonvuorenkatu 5 A', '00530 Helsinki', 'Finland']}",1228.8691887609743,€€
Vq4RTt48BXhyTQovehbwsQ,Saba,7,"[{'alias': 'pizza', 'title': 'Pizza'}]",3.5,"{'latitude': 60.1815605, 'longitude': 24.9553509}","{'address1': 'Hämeentie 7', 'address2': '', 'address3': '', 'city': 'Helsinki', 'zip_code': '00530', 'country': 'FI', 'state': '18', 'display_address': ['Hämeentie 7', '00530 Helsinki', 'Finland']}",1259.5715491968906,€
4DSuV49W4Jd5Nt7zLCYRbQ,Moko Market & Cafe,4,"[{'alias': 'homedecor', 'title': 'Home Decor'}, {'alias': 'breakfast_brunch', 'title': 'Breakfast & Brunch'}]",4.5,"{'latitude': 60.1864332, 'longitude': 24.9673314}","{'address1': 'Vilhonvuorenkatu 11', 'address2': 'Vilhelmbergsgatan 11', 'address3': '', 'city': 'Helsinki', 'zip_code': '00500', 'country': 'FI', 'state': '18', 'display_address': ['Vilhonvuorenkatu 11', 'Vilhelmbergsgatan 11', '00500 Helsinki', 'Finland']}",1260.6998640361674,€€
xrj_7Jqku-gpXtSwx3UIEA,FuManLou,1,"[{'alias': 'sushi', 'title': 'Sushi Bars'}, {'alias': 'chinese', 'title': 'Chinese'}]",2.0,"{'latitude': 60.1813087, 'longitude': 24.9527893}","{'address1': 'Hämeentie 10', 'address2': '', 'address3': '', 'city': 'Helsinki', 'zip_code': '00530', 'country': 'FI', 'state': '18', 'display_address': ['Hämeentie 10', '00530 Helsinki', 'Finland']}",1276.0653440842057,
8MD_pfspo_DdwwK1aMnfXA,Metro Fast Food,6,"[{'alias': 'hotdogs', 'title': 'Fast Food'}, {'alias': 'mideastern', 'title': 'Middle Eastern'}, {'alias': 'kebab', 'title': 'Kebab'}]",3.0,"{'latitude': 60.1809311, 'longitude': 24.9517002}","{'address1': 'Hämeentie 6 B', 'address2': None, 'address3': None, 'city': 'Helsinki', 'zip_code': '00530', 'country': 'FI', 'state': '18', 'display_address': ['Hämeentie 6 B', '00530 Helsinki', 'Finland']}",1310.7471906913813,
uz3AEDF-y1tlTNClBhnvnA,Americana Pizzeria,1,"[{'alias': 'pizza', 'title': 'Pizza'}]",5.0,"{'latitude': 60.18048, 'longitude': 24.9501}","{'address1': 'Siltasaarenkatu 11', 'address2': '', 'address3': '', 'city': 'Helsinki', 'zip_code': '00530', 'country': 'FI', 'state': '18', 'display_address': ['Siltasaarenkatu 11', '00530 Helsinki', 'Finland']}",1318.9529692977912,
jYG-wM2lDFpQZHOZbruEaw,Chilli Fastfood Restaurants,5,"[{'alias': 'kebab', 'title': 'Kebab'}]",3.0,"{'latitude': 60.18048, 'longitude': 24.9501}","{'address1': 'Siltasaarenkatu 11', 'address2': None, 'address3': None, 'city': 'Helsinki', 'zip_code': '00530', 'country': 'FI', 'state': '18', 'display_address': ['Siltasaarenkatu 11', '00530 Helsinki', 'Finland']}",1318.9529692977912,
Q97Hi90knKx2O8awRn3Uww,Kahvila-ravintola Palema,2,"[{'alias': 'modern_european', 'title': 'Modern European'}]",4.5,"{'latitude': 60.18979, 'longitude': 24.97252}","{'address1': 'Työpajankatu 2', 'address2': 'Verkstadsgatan 2', 'address3': None, 'city': 'Helsinki', 'zip_code': '00580', 'country': 'FI', 'state': '18', 'display_address': ['Työpajankatu 2', 'Verkstadsgatan 2', '00580 Helsinki', 'Finland']}",1322.8309210721995,
b7_w4EiSnOIKJAV851d9sA,Terra Nova Brasserie,1,"[{'alias': 'french', 'title': 'French'}]",4.0,"{'latitude': 60.202, 'longitude': 24.93673}","{'address1': 'Messuaukio 1', 'address2': None, 'address3': None, 'city': 'Helsinki', 'zip_code': '00520', 'country': 'FI', 'state': '18', 'display_address': ['Messuaukio 1', '00520 Helsinki', 'Finland']}",1334.5659609932247,
ST_N4lbmw_IH0AlOuD4YBA,Da Vinci,13,"[{'alias': 'italian', 'title': 'Italian'}]",3.5,"{'latitude': 60.180373810119, 'longitude': 24.9500191845073}","{'address1': 'Siltasaarenkatu 11', 'address2': '', 'address3': '', 'city': 'Helsinki', 'zip_code': '00530', 'country': 'FI', 'state': '18', 'display_address': ['Siltasaarenkatu 11', '00530 Helsinki', 'Finland']}",1338.1485658584818,€€
WTIDNTVYsFOImH5AiZxKiw,Kellohalli,6,"[{'alias': 'restaurants', 'title': 'Restaurants'}, {'alias': 'venues', 'title': 'Venues & Event Spaces'}]",4.0,"{'latitude': 60.1902503967285, 'longitude': 24.9718322753906}","{'address1': 'Työpajankatu 2 rakennus 1 E', 'address2': '', 'address3': '', 'city': 'Helsinki', 'zip_code': '00580', 'country': 'FI', 'state': '18', 'display_address': ['Työpajankatu 2 rakennus 1 E', '00580 Helsinki', 'Finland']}",1344.01300496869,€€
RX9cu3fXa1XT2kU_BNdp-w,Hesburger,4,"[{'alias': 'burgers', 'title': 'Burgers'}, {'alias': 'hotdogs', 'title': 'Fast Food'}]",2.5,"{'latitude': 60.18030885587, 'longitude': 24.9501925706863}","{'address1': 'Hämeentie 2', 'address2': None, 'address3': None, 'city': 'Helsinki', 'zip_code': '00530', 'country': 'FI', 'state': '18', 'display_address': ['Hämeentie 2', '00530 Helsinki', 'Finland']}",1346.2153871513206,
pDBvvAi4Oze4utXKmZLGOw,Lounaskahvila Raiku,3,"[{'alias': 'comfortfood', 'title': 'Comfort Food'}]",4.0,"{'latitude': 60.18036, 'longitude': 24.95226}","{'address1': 'Hämeentie 1', 'address2': 'Tavastvägen 1', 'address3': None, 'city': 'Helsinki', 'zip_code': '00530', 'country': 'FI', 'state': '18', 'display_address': ['Hämeentie 1', 'Tavastvägen 1', '00530 Helsinki', 'Finland']}",1346.8888299966875,€€
veIhjg3P00xgJTuOMIZiZQ,Lihakauppa Roslund,12,"[{'alias': 'burgers', 'title': 'Burgers'}, {'alias': 'meats', 'title': 'Meat Shops'}, {'alias': 'comfortfood', 'title': 'Comfort Food'}]",4.5,"{'latitude': 60.1897720412185, 'longitude': 24.9717521735413}","{'address1': 'Työpajankatu 2', 'address2': 'Verkstadsgatan 2', 'address3': None, 'city': 'HELSINKI', 'zip_code': '00580', 'country': 'FI', 'state': '18', 'display_address': ['Työpajankatu 2', 'Verkstadsgatan 2', '00580 HELSINKI', 'Finland']}",1349.9994740915008,€€
qjH6-7dLv6nMABbepUc-gA,Cafe Talo,16,"[{'alias': 'bars', 'title': 'Bars'}, {'alias': 'burgers', 'title': 'Burgers'}, {'alias': 'gastropubs', 'title': 'Gastropubs'}]",4.0,"{'latitude': 60.1804673, 'longitude': 24.9510068}","{'address1': 'Hämeentie 2', 'address2': None, 'address3': None, 'city': 'Helsinki', 'zip_code': '00530', 'country': 'FI', 'state': '18', 'display_address': ['Hämeentie 2', '00530 Helsinki', 'Finland']}",1352.5009020347156,€€
KHL9wx9h3CSb44QZSp1OJQ,Sävel,16,"[{'alias': 'comfortfood', 'title': 'Comfort Food'}, {'alias': 'scandinavian', 'title': 'Scandinavian'}]",3.5,"{'latitude': 60.1804657, 'longitude': 24.9510059}","{'address1': 'Hämeentie 2', 'address2': None, 'address3': None, 'city': 'Helsinki', 'zip_code': '00530', 'country': 'FI', 'state': '18', 'display_address': ['Hämeentie 2', '00530 Helsinki', 'Finland']}",1352.5009020347156,€€
J6uw1_Ih9STLu1ZN-9eJcw,Tislaamo,1,"[{'alias': 'cocktailbars', 'title': 'Cocktail Bars'}, {'alias': 'modern_european', 'title': 'Modern European'}]",5.0,"{'latitude': 60.1903838, 'longitude': 24.9720839}","{'address1': 'Työpajankatu 2', 'address2': 'Verkstadsgatan 2', 'address3': None, 'city': 'Helsinki', 'zip_code': '00580', 'country': 'FI', 'state': '01', 'display_address': ['Työpajankatu 2', 'Verkstadsgatan 2', '00580 Helsinki', 'Finland']}",1355.2214662238148,
YDVV_Gd5MCRW4ORn8OwW_w,Rosso,9,"[{'alias': 'italian', 'title': 'Italian'}, {'alias': 'pizza', 'title': 'Pizza'}]",3.0,"{'latitude': 60.1805191, 'longitude': 24.9489803}","{'address1': 'Ympyrätalo', 'address2': 'Siltasaarenkatu 18-20', 'address3': None, 'city': 'Helsinki', 'zip_code': '00530', 'country': 'FI', 'state': '18', 'display_address': ['Ympyrätalo', 'Siltasaarenkatu 18-20', '00530 Helsinki', 'Finland']}",1362.8081232697161,€€
kLBM9cfaaNwNOQIMG1k7tQ,Ho's Food,6,"[{'alias': 'chinese', 'title': 'Chinese'}]",2.5,"{'latitude': 60.1903534, 'longitude': 24.9722457}","{'address1': 'Työpajankatu 2 A R1 D', 'address2': '', 'address3': '', 'city': 'Helsinki', 'zip_code': '00580', 'country': 'FI', 'state': '18', 'display_address': ['Työpajankatu 2 A R1 D', '00580 Helsinki', 'Finland']}",1364.5969356045448,€€
m5GOpmNQCMnxblVZhBiJqA,Piritta,16,"[{'alias': 'breakfast_brunch', 'title': 'Breakfast & Brunch'}, {'alias': 'coffee', 'title': 'Coffee & Tea'}]",4.0,"{'latitude': 60.1806008050157, 'longitude': 24.9406034148194}","{'address1': 'Eläintarhantie 12', 'address2': 'Djurgårdsvägen 12', 'address3': '', 'city': 'Helsinki', 'zip_code': '00530', 'country': 'FI', 'state': '18', 'display_address': ['Eläintarhantie 12', 'Djurgårdsvägen 12', '00530 Helsinki', 'Finland']}",1368.3843507859133,€€
7KWAQG74A7D8EBr_3QeAKA,Soppakeittiö,8,"[{'alias': 'soup', 'title': 'Soup'}]",4.5,"{'latitude': 60.180093561669, 'longitude': 24.9511906206237}","{'address1': 'Hakaniemen kauppahalli', 'address2': 'Hakaniementori', 'address3': '', 'city': 'Helsinki', 'zip_code': '00530', 'country': 'FI', 'state': '18', 'display_address': ['Hakaniemen kauppahalli', 'Hakaniementori', '00530 Helsinki', 'Finland']}",1376.27053340527,€
ITX75kDk4DLEpebj3_Ed0g,B-Smokery,21,"[{'alias': 'burgers', 'title': 'Burgers'}, {'alias': 'bbq', 'title': 'Barbeque'}, {'alias': 'tradamerican', 'title': 'American (Traditional)'}]",4.0,"{'latitude': 60.190321285681, 'longitude': 24.972456738434}","{'address1': 'Työpajankatu 2 A R1 C', 'address2': 'Verkstadsgatan 2 A R1 C', 'address3': '', 'city': 'Helsinki', 'zip_code': '00580', 'country': 'FI', 'state': '18', 'display_address': ['Työpajankatu 2 A R1 C', 'Verkstadsgatan 2 A R1 C', '00580 Helsinki', 'Finland']}",1376.6908734246579,€€
35JID2Oh3kYuIletNZEBsw,Katiska,3,"[{'alias': 'sandwiches', 'title': 'Sandwiches'}, {'alias': 'coffee', 'title': 'Coffee & Tea'}]",4.0,"{'latitude': 60.1800580613709, 'longitude': 24.9512743190186}","{'address1': 'Hämeentie 1', 'address2': 'Tavastvägen 1', 'address3': '', 'city': 'Helsinki', 'zip_code': '00530', 'country': 'FI', 'state': '18', 'display_address': ['Hämeentie 1', 'Tavastvägen 1', '00530 Helsinki', 'Finland']}",1380.8024144872027,€
2ri9EAIOC2YM3l-q7b16CQ,Ravintola Windsor,2,"[{'alias': 'bars', 'title': 'Bars'}, {'alias': 'restaurants', 'title': 'Restaurants'}]",2.5,"{'latitude': 60.1982117, 'longitude': 24.9260292}","{'address1': 'Maistraatinportti 4', 'address2': None, 'address3': None, 'city': 'Helsinki', 'zip_code': '00240', 'country': 'FI', 'state': '18', 'display_address': ['Maistraatinportti 4', '00240 Helsinki', 'Finland']}",1385.4296354014346,
SAWVSVCmQvS95pwWCsVS5Q,Twisted Street Kitchen,1,"[{'alias': 'asianfusion', 'title': 'Asian Fusion'}]",4.0,"{'latitude': 60.18009, 'longitude': 24.95264}","{'address1': 'Sörnäisten rantatie 1', 'address2': 'Sörnäs strandväg 1', 'address3': '', 'city': 'Helsinki', 'zip_code': '00530', 'country': 'FI', 'state': '18', 'display_address': ['Sörnäisten rantatie 1', 'Sörnäs strandväg 1', '00530 Helsinki', 'Finland']}",1398.7442259391219,
3dUMITaG_0CtBZU5KcxAXA,Hampuris,1,"[{'alias': 'burgers', 'title': 'Burgers'}]",4.0,"{'latitude': 60.1986313, 'longitude': 24.9699078}","{'address1': 'Kyläsaarenkatu 3', 'address2': None, 'address3': None, 'city': 'Helsinki', 'zip_code': '00580', 'country': 'FI', 'state': '18', 'display_address': ['Kyläsaarenkatu 3', '00580 Helsinki', 'Finland']}",1413.172903582626,
HdlfgQ5CMeOCKLouw-8ijA,Sokos Hotel Pasila,3,"[{'alias': 'hotels', 'title': 'Hotels'}, {'alias': 'breakfast_brunch', 'title': 'Breakfast & Brunch'}]",3.0,"{'latitude': 60.19907, 'longitude': 24.9257908}","{'address1': 'Maistraatinportti 3', 'address2': None, 'address3': None, 'city': 'Helsinki', 'zip_code': '00240', 'country': 'FI', 'state': '18', 'display_address': ['Maistraatinportti 3', '00240 Helsinki', 'Finland']}",1412.8860927437786,€€
4Tm0uCBFD48anXLhM02X-g,Ravintola Töölönranta,8,"[{'alias': 'brasseries', 'title': 'Brasseries'}, {'alias': 'scandinavian', 'title': 'Scandinavian'}]",3.5,"{'latitude': 60.1825748262936, 'longitude': 24.9313629009158}","{'address1': 'Helsinginkatu 56', 'address2': None, 'address3': None, 'city': 'Helsinki', 'zip_code': '00260', 'country': 'FI', 'state': '18', 'display_address': ['Helsinginkatu 56', '00260 Helsinki', 'Finland']}",1420.9571940718133,€€€
ADstDsjyUSt8AiHkQzP2uA,Helsingin Leipä,2,"[{'alias': 'coffee', 'title': 'Coffee & Tea'}]",3.0,"{'latitude': 60.1794891, 'longitude': 24.9521198}","{'address1': 'Hakaniemen metroasema', 'address2': '', 'address3': '', 'city': 'Helsinki', 'zip_code': '00530', 'country': 'FI', 'state': '18', 'display_address': ['Hakaniemen metroasema', '00530 Helsinki', 'Finland']}",1432.8496758904457,
y17Rvc5mzjhs32b19E0R7A,Meripaviljonki,12,"[{'alias': 'seafood', 'title': 'Seafood'}, {'alias': 'scandinavian', 'title': 'Scandinavian'}]",3.5,"{'latitude': 60.1790314, 'longitude': 24.9468994}","{'address1': 'Säästöpankinranta 3', 'address2': '', 'address3': '', 'city': 'Helsinki', 'zip_code': '00530', 'country': 'FI', 'state': '18', 'display_address': ['Säästöpankinranta 3', '00530 Helsinki', 'Finland']}",1443.6719461305347,€€€
dd8OTq3CRphW5fBbA5wRJA,Nepalilainen ravintola Lali Gurans,1,"[{'alias': 'himalayan', 'title': 'Himalayan/Nepalese'}]",4.0,"{'latitude': 60.19034, 'longitude': 24.97531}","{'address1': 'Vanha talvitie 2', 'address2': '', 'address3': '', 'city': 'Helsinki', 'zip_code': '00580', 'country': 'FI', 'state': '18', 'display_address': ['Vanha talvitie 2', '00580 Helsinki', 'Finland']}",1449.8690955322102,€
XTlzin9uaov2S9-mE1S5RA,Graniittilinna,2,"[{'alias': 'restaurants', 'title': 'Restaurants'}]",4.5,"{'latitude': 60.1788101, 'longitude': 24.9475403}","{'address1': 'Säästöpankinranta 6', 'address2': None, 'address3': None, 'city': 'Helsinki', 'zip_code': '00530', 'country': 'FI', 'state': '18', 'display_address': ['Säästöpankinranta 6', '00530 Helsinki', 'Finland']}",1480.2448298111044,€€€
k-4pB6zH_Eigx2w662sqtQ,Chico's,2,"[{'alias': 'tradamerican', 'title': 'American (Traditional)'}]",3.0,"{'latitude': 60.20224, 'longitude': 24.9668293}","{'address1': 'Hämeentie 109-111', 'address2': None, 'address3': None, 'city': 'Helsinki', 'zip_code': '00550', 'country': 'FI', 'state': '18', 'display_address': ['Hämeentie 109-111', '00550 Helsinki', 'Finland']}",1491.5849044796537,
RZ57ic6-YTdD66vcVJYm_Q,Juttutupa,24,"[{'alias': 'scandinavian', 'title': 'Scandinavian'}, {'alias': 'musicvenues', 'title': 'Music Venues'}]",3.5,"{'latitude': 60.1788802165417, 'longitude': 24.9471196422743}","{'address1': 'Säästöpankinranta 6', 'address2': 'Sparbankskajen 6', 'address3': None, 'city': 'Helsinki', 'zip_code': '00530', 'country': 'FI', 'state': '18', 'display_address': ['Säästöpankinranta 6', 'Sparbankskajen 6', '00530 Helsinki', 'Finland']}",1499.654073499231,€€€
jaQ98tCt3IEPcq_ettc3mQ,McDonald's,3,"[{'alias': 'hotdogs', 'title': 'Fast Food'}, {'alias': 'burgers', 'title': 'Burgers'}]",3.5,"{'latitude': 60.1786995, 'longitude': 24.9493103}","{'address1': 'Siltasaarenkatu 12', 'address2': None, 'address3': None, 'city': 'Helsinki', 'zip_code': '00530', 'country': 'FI', 'state': '18', 'display_address': ['Siltasaarenkatu 12', '00530 Helsinki', 'Finland']}",1508.8843684593767,€
yNQxDxlgRANCqcsi9tw4cA,Ravintola Freshco,1,"[{'alias': 'restaurants', 'title': 'Restaurants'}]",4.0,"{'latitude': 60.1877708, 'longitude': 24.9225998}","{'address1': 'Urheilukatu 5', 'address2': None, 'address3': None, 'city': 'Helsinki', 'zip_code': '00150', 'country': 'FI', 'state': '18', 'display_address': ['Urheilukatu 5', '00150 Helsinki', 'Finland']}",1541.6839276395424,
N0BBbpCS3GO43YZJWxHi4w,Kuja,20,"[{'alias': 'bistros', 'title': 'Bistros'}]",3.5,"{'latitude': 60.1789212, 'longitude': 24.9547785}","{'address1': 'Hakaniemenkatu 7', 'address2': '', 'address3': '', 'city': 'Helsinki', 'zip_code': '00530', 'country': 'FI', 'state': '18', 'display_address': ['Hakaniemenkatu 7', '00530 Helsinki', 'Finland']}",1542.232545743519,€€
BPnqTttLOXEeDi3GBAxuug,Rice Garden,8,"[{'alias': 'sushi', 'title': 'Sushi Bars'}]",3.0,"{'latitude': 60.1784811466409, 'longitude': 24.9494129797173}","{'address1': 'Siltasaarenkatu 12', 'address2': 'Broholmsgatan 12', 'address3': '', 'city': 'Helsinki', 'zip_code': '00530', 'country': 'FI', 'state': '18', 'display_address': ['Siltasaarenkatu 12', 'Broholmsgatan 12', '00530 Helsinki', 'Finland']}",1545.7129816259621,€€
5_cyRV-ElnoQwjOBhNsYXQ,Gandi,10,"[{'alias': 'indpak', 'title': 'Indian'}]",3.5,"{'latitude': 60.1843978071474, 'longitude': 24.9244910907599}","{'address1': 'Toivonkatu 1-3', 'address2': None, 'address3': None, 'city': 'Helsinki', 'zip_code': '00250', 'country': 'FI', 'state': '18', 'display_address': ['Toivonkatu 1-3', '00250 Helsinki', 'Finland']}",1567.6327709763627,€€
w6pHYhBbPRLB9ZChE-tqvw,Hook,2,"[{'alias': 'chickenshop', 'title': 'Chicken Shop'}, {'alias': 'burgers', 'title': 'Burgers'}]",2.0,"{'latitude': 60.1827936558454, 'longitude': 24.9266611085992}","{'address1': 'Mannerheimintie 17', 'address2': 'Mannerheimvägen 17', 'address3': '', 'city': 'Helsinki', 'zip_code': '00250', 'country': 'FI', 'state': '18', 'display_address': ['Mannerheimintie 17', 'Mannerheimvägen 17', '00250 Helsinki', 'Finland']}",1584.0771984103626,
b7y5jiQz1nd2LUXdihSzkw,Bali Bagus Helsinki,1,"[{'alias': 'indonesian', 'title': 'Indonesian'}]",5.0,"{'latitude': 60.1797194, 'longitude': 24.9612648}","{'address1': 'Haapaniemenkatu 14 A', 'address2': None, 'address3': '', 'city': 'Helsinki', 'zip_code': '00530', 'country': 'FI', 'state': '', 'display_address': ['Haapaniemenkatu 14 A', '00530 Helsinki', 'Finland']}",1588.3096284336518,
z71YqSU_LiczxVgi1Ajutw,Hong Kong,7,"[{'alias': 'chinese', 'title': 'Chinese'}]",3.5,"{'latitude': 60.1857185, 'longitude': 24.9221001}","{'address1': 'Sallinkatu 3', 'address2': '', 'address3': '', 'city': 'Helsinki', 'zip_code': '00250', 'country': 'FI', 'state': '18', 'display_address': ['Sallinkatu 3', '00250 Helsinki', 'Finland']}",1591.2651358965193,€€
PODq1vk1yxZOHMxqzQ6vOA,Don Angelo,4,"[{'alias': 'italian', 'title': 'Italian'}]",4.0,"{'latitude': 60.1829233737037, 'longitude': 24.9262084248486}","{'address1': 'Mannerheimintie 64', 'address2': 'Mannerheimvägen 64', 'address3': '', 'city': 'Helsinki', 'zip_code': '00260', 'country': 'FI', 'state': '18', 'display_address': ['Mannerheimintie 64', 'Mannerheimvägen 64', '00260 Helsinki', 'Finland']}",1593.1664291909672,
S49bbNUJj8HAPicMQ2e4YA,China Flavor,2,"[{'alias': 'chinese', 'title': 'Chinese'}]",4.0,"{'latitude': 60.2027268424335, 'longitude': 24.9680902808905}","{'address1': 'Hämeentie 111', 'address2': 'Tavastvägen 111', 'address3': '', 'city': 'Helsinki', 'zip_code': '00550', 'country': 'FI', 'state': '18', 'display_address': ['Hämeentie 111', 'Tavastvägen 111', '00550 Helsinki', 'Finland']}",1604.541916823915,
padJOzJNOtRx4ziMPSGxUQ,Oopperan grilli,4,"[{'alias': 'hotdogs', 'title': 'Fast Food'}]",4.0,"{'latitude': 60.1833611, 'longitude': 24.9258499}","{'address1': 'Mannerheimintie 17', 'address2': '', 'address3': '', 'city': 'Helsinki', 'zip_code': '00250', 'country': 'FI', 'state': '18', 'display_address': ['Mannerheimintie 17', '00250 Helsinki', 'Finland']}",1607.7350217226412,
zg8W8s0tIFnsMdRl81iNXQ,La Mer,1,"[{'alias': 'restaurants', 'title': 'Restaurants'}]",3.0,"{'latitude': 60.1777496, 'longitude': 24.9509602}","{'address1': 'John Stenbergin Ranta 6', 'address2': None, 'address3': None, 'city': 'Helsinki', 'zip_code': '00530', 'country': 'FI', 'state': '18', 'display_address': ['John Stenbergin Ranta 6', '00530 Helsinki', 'Finland']}",1608.5308831459747,
T8sMC61h3LkaI6i02ODi4Q,Diyalo,2,"[{'alias': 'himalayan', 'title': 'Himalayan/Nepalese'}]",4.0,"{'latitude': 60.1846761554171, 'longitude': 24.9232234073229}","{'address1': 'Mannerheimintie 23', 'address2': None, 'address3': '', 'city': 'Helsinki', 'zip_code': '00250', 'country': 'FI', 'state': '18', 'display_address': ['Mannerheimintie 23', '00250 Helsinki', 'Finland']}",1609.289477252301,€€
KGwdzWZ6djaZSRpvZis1pg,Ciao! Caffé,1,"[{'alias': 'italian', 'title': 'Italian'}, {'alias': 'icecream', 'title': 'Ice Cream & Frozen Yogurt'}]",1.0,"{'latitude': 60.20292, 'longitude': 24.96819}","{'address1': 'Kauppakeskus Arabia', 'address2': 'Hämeentie 111', 'address3': '', 'city': 'Helsinki', 'zip_code': '00100', 'country': 'FI', 'state': '18', 'display_address': ['Kauppakeskus Arabia', 'Hämeentie 111', '00100 Helsinki', 'Finland']}",1609.559823997219,€
ztRU7UGx73QK5AEjZ9qjEQ,Maharaja,13,"[{'alias': 'indpak', 'title': 'Indian'}]",4.0,"{'latitude': 60.1847305, 'longitude': 24.9234695}","{'address1': 'Mannerheimintie 21-23', 'address2': None, 'address3': None, 'city': 'Helsinki', 'zip_code': '00250', 'country': 'FI', 'state': '18', 'display_address': ['Mannerheimintie 21-23', '00250 Helsinki', 'Finland']}",1611.1228028565406,€€
r3fks213kdeQBeDgj-GbXQ,Thai Manohra,2,"[{'alias': 'thai', 'title': 'Thai'}]",3.5,"{'latitude': 60.1847305, 'longitude': 24.9234695}","{'address1': 'Mannerheimintie 21-23', 'address2': None, 'address3': None, 'city': 'Helsinki', 'zip_code': '00250', 'country': 'FI', 'state': '18', 'display_address': ['Mannerheimintie 21-23', '00250 Helsinki', 'Finland']}",1611.1228028565406,
15547n0V-fWgQbVEC7HVQw,Sen Chay,10,"[{'alias': 'vegetarian', 'title': 'Vegetarian'}]",4.5,"{'latitude': 60.1778816903161, 'longitude': 24.9507051534424}","{'address1': 'Siltasaarenkatu 3-5', 'address2': 'Broholmsgatan 3-5', 'address3': '', 'city': 'Helsinki', 'zip_code': '00530', 'country': 'FI', 'state': '18', 'display_address': ['Siltasaarenkatu 3-5', 'Broholmsgatan 3-5', '00530 Helsinki', 'Finland']}",1617.5765316156487,€
7Zc1YCCUF2Tf-cSPy0MWTw,Jitu's Pizza & Kebab,3,"[{'alias': 'pizza', 'title': 'Pizza'}]",3.5,"{'latitude': 60.1857132, 'longitude': 24.9217229}","{'address1': 'Mannerheimintie 29', 'address2': 'Mannerheimvägen 29', 'address3': '', 'city': 'Helsinki', 'zip_code': '00250', 'country': 'FI', 'state': '18', 'display_address': ['Mannerheimintie 29', 'Mannerheimvägen 29', '00250 Helsinki', 'Finland']}",1624.5187042442947,€
Dg56kXD9LS120q3AGAa2cw,Chico's,10,"[{'alias': 'tradamerican', 'title': 'American (Traditional)'}]",2.5,"{'latitude': 60.1829796, 'longitude': 24.9246902}","{'address1': 'Mannerheimintie 68', 'address2': None, 'address3': None, 'city': 'Helsinki', 'zip_code': '00260', 'country': 'FI', 'state': '18', 'display_address': ['Mannerheimintie 68', '00260 Helsinki', 'Finland']}",1636.5516124524402,€€
KAqc5BwwHtPZ5wpO8TrdhA,Himshikhar,10,"[{'alias': 'himalayan', 'title': 'Himalayan/Nepalese'}]",3.5,"{'latitude': 60.1777496, 'longitude': 24.9509602}","{'address1': 'Siltasaarenkatu 3', 'address2': '', 'address3': '', 'city': 'Helsinki', 'zip_code': '00530', 'country': 'FI', 'state': '18', 'display_address': ['Siltasaarenkatu 3', '00530 Helsinki', 'Finland']}",1639.4164713261582,€€
rx3T93C6MZkKv4M9fnvXfA,Sir Oliver,7,"[{'alias': 'restaurants', 'title': 'Restaurants'}, {'alias': 'karaoke', 'title': 'Karaoke'}, {'alias': 'musicvenues', 'title': 'Music Venues'}]",3.5,"{'latitude': 60.1819, 'longitude': 24.9569607}","{'address1': 'Haapaniemenkatu 14A 2', 'address2': None, 'address3': None, 'city': 'Helsinki', 'zip_code': '00530', 'country': 'FI', 'state': '18', 'display_address': ['Haapaniemenkatu 14A 2', '00530 Helsinki', 'Finland']}",1642.2014802571064,€€
wvRDenCDgVpUf3-MC3Wavw,Phad Thai,5,"[{'alias': 'thai', 'title': 'Thai'}]",3.5,"{'latitude': 60.1890180025028, 'longitude': 24.9189361184835}","{'address1': 'Urheilukatu 36', 'address2': '', 'address3': '', 'city': 'Helsinki', 'zip_code': '00250', 'country': 'FI', 'state': '18', 'display_address': ['Urheilukatu 36', '00250 Helsinki', 'Finland']}",1643.1520272805026,€€
tHpI3YS8tFUQOJ9YZem_4g,William K.,8,"[{'alias': 'restaurants', 'title': 'Restaurants'}, {'alias': 'pubs', 'title': 'Pubs'}]",4.0,"{'latitude': 60.1835213, 'longitude': 24.9235497}","{'address1': 'Mannerheimintie 72', 'address2': None, 'address3': None, 'city': 'Helsinki', 'zip_code': '00250', 'country': 'FI', 'state': '18', 'display_address': ['Mannerheimintie 72', '00250 Helsinki', 'Finland']}",1652.3387486457939,€€
dXfTOWDQBuRKMvkWiQEypA,Sushi Panda,1,"[{'alias': 'sushi', 'title': 'Sushi Bars'}, {'alias': 'vegan', 'title': 'Vegan'}]",5.0,"{'latitude': 60.18326, 'longitude': 24.92388}","{'address1': 'Mannerheimintie 70', 'address2': 'Mannerheimvägen 70', 'address3': None, 'city': 'Helsingfors', 'zip_code': '00250', 'country': 'FI', 'state': '01', 'display_address': ['Mannerheimintie 70', 'Mannerheimvägen 70', '00250 Helsingfors', 'Finland']}",1666.3595901777965,
BFA8v0D0lgCr7-WZKK6RrA,Lukla,5,"[{'alias': 'himalayan', 'title': 'Himalayan/Nepalese'}]",4.5,"{'latitude': 60.1815641829252, 'longitude': 24.9265288173329}","{'address1': 'Runeberginkatu 60', 'address2': 'Runebergsgatan 60', 'address3': '', 'city': 'Helsinki', 'zip_code': '00260', 'country': 'FI', 'state': '18', 'display_address': ['Runeberginkatu 60', 'Runebergsgatan 60', '00260 Helsinki', 'Finland']}",1684.088579096326,€€
2wjcyUIUCemmZXEddHKGXw,Ravintolalaiva Wäiski,9,"[{'alias': 'restaurants', 'title': 'Restaurants'}, {'alias': 'danceclubs', 'title': 'Dance Clubs'}]",3.5,"{'latitude': 60.1788483, 'longitude': 24.9583206}","{'address1': 'Hakaniemenranta 11', 'address2': None, 'address3': None, 'city': 'Helsinki', 'zip_code': '00530', 'country': 'FI', 'state': '18', 'display_address': ['Hakaniemenranta 11', '00530 Helsinki', 'Finland']}",1686.9802105938145,
pDC8l5Y5DAUrHzi6zs6xBg,Ravintola Lyon,2,"[{'alias': 'restaurants', 'title': 'Restaurants'}]",3.5,"{'latitude': 60.1810799, 'longitude': 24.9271393}","{'address1': 'Mannerheimintie 56', 'address2': None, 'address3': None, 'city': 'Helsinki', 'zip_code': '00260', 'country': 'FI', 'state': '18', 'display_address': ['Mannerheimintie 56', '00260 Helsinki', 'Finland']}",1689.502447251187,
lzSM-Yl8eUQoTMK9Fhmeyw,Subway,2,"[{'alias': 'sandwiches', 'title': 'Sandwiches'}, {'alias': 'hotdogs', 'title': 'Fast Food'}]",3.0,"{'latitude': 60.1810799, 'longitude': 24.9271393}","{'address1': 'Mannerheimintie 56 A', 'address2': '', 'address3': '', 'city': 'Helsinki', 'zip_code': '00260', 'country': 'FI', 'state': '18', 'display_address': ['Mannerheimintie 56 A', '00260 Helsinki', 'Finland']}",1689.502447251187,
tnEQoeuL-CRWE1coSQSn8A,Stadin Ravintola,1,"[{'alias': 'pizza', 'title': 'Pizza'}, {'alias': 'hotdogs', 'title': 'Fast Food'}, {'alias': 'kebab', 'title': 'Kebab'}]",3.0,"{'latitude': 60.18886, 'longitude': 24.9182}","{'address1': 'Mannerheimintie 47', 'address2': 'Mannerheimvägen 47', 'address3': None, 'city': 'Helsinki', 'zip_code': '00250', 'country': 'FI', 'state': '18', 'display_address': ['Mannerheimintie 47', 'Mannerheimvägen 47', '00250 Helsinki', 'Finland']}",1690.0467187791205,
7bIuWcnFJNnzPZ2YtvEmJQ,Ravintola Carelia,6,"[{'alias': 'restaurants', 'title': 'Restaurants'}, {'alias': 'wine_bars', 'title': 'Wine Bars'}]",4.0,"{'latitude': 60.18112449, 'longitude': 24.92728283}","{'address1': 'Mannerheimintie 56', 'address2': 'Mannerheimvägen 56', 'address3': None, 'city': 'HELSINKI', 'zip_code': '00260', 'country': 'FI', 'state': '18', 'display_address': ['Mannerheimintie 56', 'Mannerheimvägen 56', '00260 HELSINKI', 'Finland']}",1690.9296060870824,€€€
IbFW_nJxT5c6XM-9AoY6aA,Bro,9,"[{'alias': 'scandinavian', 'title': 'Scandinavian'}]",4.0,"{'latitude': 60.1771330506613, 'longitude': 24.95125592775}","{'address1': 'John Stenbergin ranta 4', 'address2': 'John Stenbergs strand 4', 'address3': '', 'city': 'Helsinki', 'zip_code': '00530', 'country': 'FI', 'state': '18', 'display_address': ['John Stenbergin ranta 4', 'John Stenbergs strand 4', '00530 Helsinki', 'Finland']}",1703.51025510367,€€€
gRZTOANopwpyHYYgRGjrlA,Ravintola Lämpö,4,"[{'alias': 'restaurants', 'title': 'Restaurants'}]",3.0,"{'latitude': 60.1842194, 'longitude': 24.9754009}","{'address1': 'Kaasutehtaankatu 1  045 1186333', 'address2': '', 'address3': '', 'city': 'Helsinki', 'zip_code': '00580', 'country': 'FI', 'state': '18', 'display_address': ['Kaasutehtaankatu 1  045 1186333', '00580 Helsinki', 'Finland']}",1707.1594964545864,
OGqGHLUGPI_b1POVo2jARA,Mercur,1,"[{'alias': 'comfortfood', 'title': 'Comfort Food'}, {'alias': 'bars', 'title': 'Bars'}]",2.0,"{'latitude': 60.1819191, 'longitude': 24.9253197}","{'address1': 'Ruusulankatu 5', 'address2': None, 'address3': None, 'city': 'Helsinki', 'zip_code': '00260', 'country': 'FI', 'state': '18', 'display_address': ['Ruusulankatu 5', '00260 Helsinki', 'Finland']}",1712.367240334939,
s5dBoi-WjoLhPB-fNTW6_Q,THAi Ocha,5,"[{'alias': 'thai', 'title': 'Thai'}]",4.0,"{'latitude': 60.1892659, 'longitude': 24.9174563}","{'address1': 'Mannerheimintie 49', 'address2': '', 'address3': '', 'city': 'Helsinki', 'zip_code': '00250', 'country': 'FI', 'state': '18', 'display_address': ['Mannerheimintie 49', '00250 Helsinki', 'Finland']}",1717.1861804121854,€€
x7z7vd_k9L1M1TrDe8Eq1A,Phloopy's Crêperie & Café,1,"[{'alias': 'creperies', 'title': 'Creperies'}, {'alias': 'coffee', 'title': 'Coffee & Tea'}, {'alias': 'bakeries', 'title': 'Bakeries'}]",5.0,"{'latitude': 60.1883136361935, 'longitude': 24.9178904214264}","{'address1': 'Mannerheimintie 98', 'address2': None, 'address3': '', 'city': 'Helsinki', 'zip_code': '00250', 'country': 'FI', 'state': '', 'display_address': ['Mannerheimintie 98', '00250 Helsinki', 'Finland']}",1718.3569145408258,
LQJ_C00yU0-Fp7D1IRX_uw,Linko Pizzabar,18,"[{'alias': 'pizza', 'title': 'Pizza'}, {'alias': 'bars', 'title': 'Bars'}, {'alias': 'salad', 'title': 'Salad'}]",4.5,"{'latitude': 60.181794284692, 'longitude': 24.9252077433968}","{'address1': 'Ruusulankatu 5', 'address2': 'Rosavillagatan 5', 'address3': '', 'city': 'Helsinki', 'zip_code': '00260', 'country': 'FI', 'state': '18', 'display_address': ['Ruusulankatu 5', 'Rosavillagatan 5', '00260 Helsinki', 'Finland']}",1718.4859674055238,€€
pHovMXxRaQ_qmiuHDgwbgg,Flying Dutch,15,"[{'alias': 'musicvenues', 'title': 'Music Venues'}, {'alias': 'bars', 'title': 'Bars'}, {'alias': 'burgers', 'title': 'Burgers'}]",4.5,"{'latitude': 60.1768941813989, 'longitude': 24.9490928649902}","{'address1': 'Pitkänsillanranta 2', 'address2': 'Långbrokajen 2', 'address3': '', 'city': 'Helsinki', 'zip_code': '00530', 'country': 'FI', 'state': '18', 'display_address': ['Pitkänsillanranta 2', 'Långbrokajen 2', '00530 Helsinki', 'Finland']}",1721.1666459810137,€€
EbnEGldC6pjSHj-0HL8vTA,Sportbar Töölö,5,"[{'alias': 'restaurants', 'title': 'Restaurants'}, {'alias': 'sportsbars', 'title': 'Sports Bars'}]",3.0,"{'latitude': 60.1882286, 'longitude': 24.9177494}","{'address1': 'Mannerheimintie 98', 'address2': '', 'address3': '', 'city': 'Helsinki', 'zip_code': '00250', 'country': 'FI', 'state': '18', 'display_address': ['Mannerheimintie 98', '00250 Helsinki', 'Finland']}",1723.2968758087957,
R11vOISXGoQBKFoDuNr_Eg,Hesburger,3,"[{'alias': 'burgers', 'title': 'Burgers'}, {'alias': 'hotdogs', 'title': 'Fast Food'}]",1.5,"{'latitude': 60.1905594, 'longitude': 24.9148293}","{'address1': 'Mannerheimintie', 'address2': None, 'address3': None, 'city': 'Helsinki', 'zip_code': '00250', 'country': 'FI', 'state': '18', 'display_address': ['Mannerheimintie', '00250 Helsinki', 'Finland']}",1724.0991801823195,
gk6pIxOTP0P0G_uarZQbvA,Daddy Greens Pizzabar,7,"[{'alias': 'pizza', 'title': 'Pizza'}]",4.5,"{'latitude': 60.18503, 'longitude': 24.92031}","{'address1': 'Humalistonkatu 3', 'address2': 'Hummelgatan 3', 'address3': None, 'city': 'Helsinki', 'zip_code': '00250', 'country': 'FI', 'state': '01', 'display_address': ['Humalistonkatu 3', 'Hummelgatan 3', '00250 Helsinki', 'Finland']}",1724.578070812915,
ThvmTwdLnhXYYZZhq3KjUA,Karhu Ministeri,6,"[{'alias': 'pubs', 'title': 'Pubs'}, {'alias': 'pizza', 'title': 'Pizza'}]",3.5,"{'latitude': 60.1895714, 'longitude': 24.9172592}","{'address1': 'Mannerheimintie 51', 'address2': None, 'address3': None, 'city': 'Helsinki', 'zip_code': '00250', 'country': 'FI', 'state': '18', 'display_address': ['Mannerheimintie 51', '00250 Helsinki', 'Finland']}",1730.626968427953,€€
jK90rT2gaLnRF1904r7_FQ,Hokkaido,5,"[{'alias': 'sushi', 'title': 'Sushi Bars'}]",4.0,"{'latitude': 60.18857, 'longitude': 24.91731}","{'address1': 'Mannerheimintie 100', 'address2': 'Mannerheimvägen 100', 'address3': '', 'city': 'Helsinki', 'zip_code': '00250', 'country': 'FI', 'state': '18', 'display_address': ['Mannerheimintie 100', 'Mannerheimvägen 100', '00250 Helsinki', 'Finland']}",1735.9490595447373,
C_8DdBeIw8Bin3RaPKNSRw,Villetta,11,"[{'alias': 'pizza', 'title': 'Pizza'}, {'alias': 'italian', 'title': 'Italian'}]",4.0,"{'latitude': 60.1822207547844, 'longitude': 24.9239924025402}","{'address1': 'Ruusulankatu 8', 'address2': None, 'address3': None, 'city': 'Helsinki', 'zip_code': '00260', 'country': 'FI', 'state': '18', 'display_address': ['Ruusulankatu 8', '00260 Helsinki', 'Finland']}",1736.9510399682106,€€
ZXvGowiuiSeLhWVuPjdFBA,Fafa's,3,"[{'alias': 'mideastern', 'title': 'Middle Eastern'}]",3.5,"{'latitude': 60.1813001768981, 'longitude': 24.9256667912975}","{'address1': 'Ruusulankatu 1', 'address2': 'Rosavillagatan 1', 'address3': '', 'city': 'Helsinki', 'zip_code': '00260', 'country': 'FI', 'state': '18', 'display_address': ['Ruusulankatu 1', 'Rosavillagatan 1', '00260 Helsinki', 'Finland']}",1738.490396069344,€
IFyMUj9SobQ0eS8TkNqmRw,Cafe Truffel,1,"[{'alias': 'coffee', 'title': 'Coffee & Tea'}, {'alias': 'mediterranean', 'title': 'Mediterranean'}]",4.0,"{'latitude': 60.1828613, 'longitude': 24.9227905}","{'address1': 'Sibeliuksenkatu 5', 'address2': '', 'address3': '', 'city': 'Helsinki', 'zip_code': '00250', 'country': 'FI', 'state': '18', 'display_address': ['Sibeliuksenkatu 5', '00250 Helsinki', 'Finland']}",1740.607146625253,€
r1i7OOJHHnv4PMn3UvNT_g,McDonald's,11,"[{'alias': 'hotdogs', 'title': 'Fast Food'}, {'alias': 'burgers', 'title': 'Burgers'}]",3.0,"{'latitude': 60.1901016, 'longitude': 24.9164696}","{'address1': 'Mannerheimintie 53', 'address2': '', 'address3': '', 'city': 'Helsinki', 'zip_code': '00250', 'country': 'FI', 'state': '18', 'display_address': ['Mannerheimintie 53', '00250 Helsinki', 'Finland']}",1757.2491501808483,€
88hVRQib_nCgHDcWVULMpg,Ravintola Kaisaniemi,6,"[{'alias': 'buffets', 'title': 'Buffets'}, {'alias': 'venues', 'title': 'Venues & Event Spaces'}]",4.0,"{'latitude': 60.1768220435389, 'longitude': 24.9412835715367}","{'address1': 'Kaisaniementie 6', 'address2': None, 'address3': None, 'city': 'Helsinki', 'zip_code': '00100', 'country': 'FI', 'state': '18', 'display_address': ['Kaisaniementie 6', '00100 Helsinki', 'Finland']}",1766.1012393239894,
Uncr50bZGdoavBIwFlj2XQ,Viisi Penniä,14,"[{'alias': 'gastropubs', 'title': 'Gastropubs'}, {'alias': 'comfortfood', 'title': 'Comfort Food'}, {'alias': 'scandinavian', 'title': 'Scandinavian'}]",3.0,"{'latitude': 60.1902504, 'longitude': 24.9161301}","{'address1': 'Mannerheimintie 55', 'address2': '', 'address3': '', 'city': 'Helsinki', 'zip_code': '00250', 'country': 'FI', 'state': '18', 'display_address': ['Mannerheimintie 55', '00250 Helsinki', 'Finland']}",1777.0068623272373,€
YdA_eSgxucu9xebIFpDyMQ,Korjaamo,13,"[{'alias': 'restaurants', 'title': 'Restaurants'}, {'alias': 'musicvenues', 'title': 'Music Venues'}, {'alias': 'bars', 'title': 'Bars'}]",3.5,"{'latitude': 60.1843109, 'longitude': 24.9200001}","{'address1': 'Töölönkatu 51 B', 'address2': None, 'address3': None, 'city': 'Helsinki', 'zip_code': '00250', 'country': 'FI', 'state': '18', 'display_address': ['Töölönkatu 51 B', '00250 Helsinki', 'Finland']}",1779.8319627844112,€
Z5OdOnICZeq_UUgnK4lc0Q,Macu,6,"[{'alias': 'mediterranean', 'title': 'Mediterranean'}]",3.0,"{'latitude': 60.1799316, 'longitude': 24.9271393}","{'address1': 'Mannerheimintie 50', 'address2': None, 'address3': None, 'city': 'Helsinki', 'zip_code': '00260', 'country': 'FI', 'state': '18', 'display_address': ['Mannerheimintie 50', '00260 Helsinki', 'Finland']}",1781.7304041375405,€€€
w3iqHt6zy80Vop0vPrnRhQ,Lie Mi,5,"[{'alias': 'vietnamese', 'title': 'Vietnamese'}]",3.0,"{'latitude': 60.1809280778816, 'longitude': 24.9252896233852}","{'address1': 'Runeberginkatu 56', 'address2': 'Runebergsgatan 56', 'address3': None, 'city': 'Helsinki', 'zip_code': '00260', 'country': 'FI', 'state': '01', 'display_address': ['Runeberginkatu 56', 'Runebergsgatan 56', '00260 Helsinki', 'Finland']}",1782.5628274221954,
K5DjX8qDF-BaPgkmx2K1Iw,Ravintola Mestarikilta,1,"[{'alias': 'restaurants', 'title': 'Restaurants'}]",2.0,"{'latitude': 60.2016029, 'longitude': 24.9206505}","{'address1': 'Rahakamarinportti 3', 'address2': None, 'address3': None, 'city': 'Helsinki', 'zip_code': '00240', 'country': 'FI', 'state': '18', 'display_address': ['Rahakamarinportti 3', '00240 Helsinki', 'Finland']}",1784.9605521342546,
4Gkhxl-vQQY63YwecKobWA,Wagocoro,17,"[{'alias': 'sushi', 'title': 'Sushi Bars'}, {'alias': 'japanese', 'title': 'Japanese'}]",5.0,"{'latitude': 60.1807252, 'longitude': 24.9252809}","{'address1': 'Runeberginkatu 63 A 21', 'address2': 'Runebergsgatan 63 A 21', 'address3': '', 'city': 'Helsinki', 'zip_code': '00260', 'country': 'FI', 'state': '18', 'display_address': ['Runeberginkatu 63 A 21', 'Runebergsgatan 63 A 21', '00260 Helsinki', 'Finland']}",1799.0592606450873,€€
z87jpkbdb5v9QJgKKlQJRg,China Gate,1,"[{'alias': 'chinese', 'title': 'Chinese'}]",2.0,"{'latitude': 60.1806602, 'longitude': 24.9256496}","{'address1': 'Runeberginkatu 63 B', 'address2': None, 'address3': None, 'city': 'Helsinki', 'zip_code': '00260', 'country': 'FI', 'state': '18', 'display_address': ['Runeberginkatu 63 B', '00260 Helsinki', 'Finland']}",1801.295831114566,
mWvKLbmMia9ZOojWK9cMmA,Sushibar + Wine,5,"[{'alias': 'sushi', 'title': 'Sushi Bars'}, {'alias': 'wine_bars', 'title': 'Wine Bars'}]",4.0,"{'latitude': 60.1840781, 'longitude': 24.9197946}","{'address1': 'Korjaamo', 'address2': 'Töölönkatu 51 a-b', 'address3': '', 'city': 'Helsinki', 'zip_code': '00250', 'country': 'FI', 'state': '18', 'display_address': ['Korjaamo', 'Töölönkatu 51 a-b', '00250 Helsinki', 'Finland']}",1805.7712478424803,
MvioyaAt_v1UlC-Amzk8hg,Soup,4,"[{'alias': 'vegetarian', 'title': 'Vegetarian'}, {'alias': 'soup', 'title': 'Soup'}]",5.0,"{'latitude': 60.1807613030336, 'longitude': 24.9246104825112}","{'address1': 'Runeberginkatu 54', 'address2': 'Runebergsgatan 54', 'address3': '', 'city': 'Helsinki', 'zip_code': '00260', 'country': 'FI', 'state': '18', 'display_address': ['Runeberginkatu 54', 'Runebergsgatan 54', '00260 Helsinki', 'Finland']}",1822.160757683597,€
cJH4u0MoRAE86B00HcekJA,Viola,7,"[{'alias': 'scandinavian', 'title': 'Scandinavian'}, {'alias': 'coffee', 'title': 'Coffee & Tea'}]",4.0,"{'latitude': 60.1759691376373, 'longitude': 24.9460696710438}","{'address1': 'Kaisaniemenranta 2', 'address2': '', 'address3': '', 'city': 'Helsinki', 'zip_code': '00170', 'country': 'FI', 'state': '18', 'display_address': ['Kaisaniemenranta 2', '00170 Helsinki', 'Finland']}",1825.524180545148,€€
jpA1KUMosc97uaqnRmCtSw,HIMA happiness,1,"[{'alias': 'juicebars', 'title': 'Juice Bars & Smoothies'}, {'alias': 'sandwiches', 'title': 'Sandwiches'}, {'alias': 'raw_food', 'title': 'Live/Raw Food'}]",3.0,"{'latitude': 60.17603, 'longitude': 24.95242}","{'address1': 'Siltavuorenranta 16', 'address2': 'Brobergskajen 16', 'address3': '', 'city': 'Helsinki', 'zip_code': '00100', 'country': 'FI', 'state': '18', 'display_address': ['Siltavuorenranta 16', 'Brobergskajen 16', '00100 Helsinki', 'Finland']}",1826.831369980964,
DRfL5y0XuLGuML7SZuQH-w,Mountain,25,"[{'alias': 'himalayan', 'title': 'Himalayan/Nepalese'}]",4.0,"{'latitude': 60.1863289, 'longitude': 24.9166298}","{'address1': 'Nordenskiöldinkatu 8', 'address2': None, 'address3': None, 'city': 'Helsinki', 'zip_code': '00250', 'country': 'FI', 'state': '18', 'display_address': ['Nordenskiöldinkatu 8', '00250 Helsinki', 'Finland']}",1830.522803334464,€€
Wzz6jsPwpjD9xrGfI4udew,Old Sophie,8,"[{'alias': 'bars', 'title': 'Bars'}, {'alias': 'restaurants', 'title': 'Restaurants'}]",3.5,"{'latitude': 60.208830363413, 'longitude': 24.9476967683157}","{'address1': 'Koskelantie 9', 'address2': None, 'address3': None, 'city': 'Helsinki', 'zip_code': '00610', 'country': 'FI', 'state': '18', 'display_address': ['Koskelantie 9', '00610 Helsinki', 'Finland']}",1831.284968066027,€€
5WQ6L7Q1Jo-gW3ESqr6UiA,Ristorante Il Trio,1,"[{'alias': 'pizza', 'title': 'Pizza'}, {'alias': 'italian', 'title': 'Italian'}]",4.0,"{'latitude': 60.19076, 'longitude': 24.9151}","{'address1': 'Mannerheimintie 63', 'address2': 'Mannerheimsvägen 63', 'address3': None, 'city': 'Helsinki', 'zip_code': '00250', 'country': 'FI', 'state': '01', 'display_address': ['Mannerheimintie 63', 'Mannerheimsvägen 63', '00250 Helsinki', 'Finland']}",1832.3697719535467,
Mf0vZzZJyuR5SsYnOL_7-w,Bar Teos,14,"[{'alias': 'tapasmallplates', 'title': 'Tapas/Small Plates'}]",3.5,"{'latitude': 60.1803818, 'longitude': 24.9251499}","{'address1': 'Runeberginkatu 61', 'address2': None, 'address3': None, 'city': 'Helsinki', 'zip_code': '00260', 'country': 'FI', 'state': '18', 'display_address': ['Runeberginkatu 61', '00260 Helsinki', 'Finland']}",1839.5210350010616,€€
N2zF8bFcsXeAUaK-Eesb-w,Ravintola Kuu,34,"[{'alias': 'french', 'title': 'French'}, {'alias': 'scandinavian', 'title': 'Scandinavian'}]",4.5,"{'latitude': 60.1802078365307, 'longitude': 24.9252714679363}","{'address1': 'Töölönkatu 27', 'address2': 'Tölögatan 27', 'address3': None, 'city': 'HELSINKI', 'zip_code': '00260', 'country': 'FI', 'state': '18', 'display_address': ['Töölönkatu 27', 'Tölögatan 27', '00260 HELSINKI', 'Finland']}",1841.228631561177,€€€
J_f81xM6eblL1h_Cpn3d2A,Restaurant Red Apple,1,"[{'alias': 'chinese', 'title': 'Chinese'}, {'alias': 'asianfusion', 'title': 'Asian Fusion'}]",4.0,"{'latitude': 60.1804059, 'longitude': 24.9248011}","{'address1': 'Töölönkatu 27', 'address2': 'Tölögatan 27', 'address3': '', 'city': 'Helsinki', 'zip_code': '00260', 'country': 'FI', 'state': '18', 'display_address': ['Töölönkatu 27', 'Tölögatan 27', '00260 Helsinki', 'Finland']}",1843.0366235257936,
Dyx3x5dQy4qBVs2oVQdsKQ,Dennis,7,"[{'alias': 'italian', 'title': 'Italian'},